{"interface": "eth1", "timestamp": "2021-05-22 13:50:22.168969", "net_param": {"avg_latency": 47.028, "max_latency": 68.93, "packet_loss_rate": 0.0}, "uav_param": {"mode": "POSHOLD", "status": "STANDBY", "battery": "24.48", "attitude": {"pitch": "-0.03359268605709076", "yaw": "-3.1376469135284424", "roll": "-0.005622215569019318"}}, "gps_param": {"latitude": "44.9908701", "longitude": "10.4523984", "altitude": "16.52", "groundspeed": "0.11406989395618439", "velocity": {"vx": "-0.08", "vy": "0.07", "vz": "0.09"}, "head": "180", "hdop": "71", "vdop": "105", "satellites": "15", "fix_type": "4"}}
{"interface": "eth1", "timestamp": "2021-05-22 13:50:22.168969", "net_param": {"avg_latency": 47.028, "max_latency": 68.93, "packet_loss_rate": 0.0}, "uav_param": {"mode": "POSHOLD", "status": "STANDBY", "battery": "24.48", "attitude": {"pitch": "-0.03359268605709076", "yaw": "-3.1376469135284424", "roll": "-0.005622215569019318"}}, "gps_param": {"latitude": "44.9908701", "longitude": "10.4523984", "altitude": "16.52", "groundspeed": "0.11406989395618439", "velocity": {"vx": "-0.08", "vy": "0.07", "vz": "0.09"}, "head": "180", "hdop": "71", "vdop": "105", "satellites": "15", "fix_type": "4"}}
{"interface": "eth1", "timestamp": "2021-05-22 13:50:37.145031", "net_param": {"avg_latency": 38.27, "max_latency": 46.956, "packet_loss_rate": 0.0}, "uav_param": {"mode": "POSHOLD", "status": "STANDBY", "battery": "24.478", "attitude": {"pitch": "-0.033754583448171616", "yaw": "-3.1396305561065674", "roll": "-0.005154797807335854"}}, "gps_param": {"latitude": "44.9908807", "longitude": "10.4523945", "altitude": "16.61", "groundspeed": "0.11199898272752762", "velocity": {"vx": "-0.06", "vy": "0.09", "vz": "0.08"}, "head": "180", "hdop": "71", "vdop": "105", "satellites": "15", "fix_type": "4"}}
{"interface": "eth1", "timestamp": "2021-05-22 13:50:37.145031", "net_param": {"avg_latency": 38.27, "max_latency": 46.956, "packet_loss_rate": 0.0}, "uav_param": {"mode": "POSHOLD", "status": "STANDBY", "battery": "24.478", "attitude": {"pitch": "-0.033754583448171616", "yaw": "-3.1396305561065674", "roll": "-0.005154797807335854"}}, "gps_param": {"latitude": "44.9908807", "longitude": "10.4523945", "altitude": "16.61", "groundspeed": "0.11199898272752762", "velocity": {"vx": "-0.06", "vy": "0.09", "vz": "0.08"}, "head": "180", "hdop": "71", "vdop": "105", "satellites": "15", "fix_type": "4"}}
{"interface": "eth1", "timestamp": "2021-05-22 13:50:52.237218", "net_param": {"avg_latency": 43.785, "max_latency": 68.989, "packet_loss_rate": 0.0}, "uav_param": {"mode": "POSHOLD", "status": "STANDBY", "battery": "24.474", "attitude": {"pitch": "-0.033050715923309326", "yaw": "3.1409029960632324", "roll": "-0.004158519208431244"}}, "gps_param": {"latitude": "44.9908811", "longitude": "10.4523972", "altitude": "16.65", "groundspeed": "0.1331551969051361", "velocity": {"vx": "-0.08", "vy": "0.1", "vz": "0.08"}, "head": "179", "hdop": "71", "vdop": "106", "satellites": "15", "fix_type": "4"}}
{"interface": "eth1", "timestamp": "2021-05-22 13:50:52.237218", "net_param": {"avg_latency": 43.785, "max_latency": 68.989, "packet_loss_rate": 0.0}, "uav_param": {"mode": "POSHOLD", "status": "STANDBY", "battery": "24.474", "attitude": {"pitch": "-0.033050715923309326", "yaw": "3.1409029960632324", "roll": "-0.004158519208431244"}}, "gps_param": {"latitude": "44.9908811", "longitude": "10.4523972", "altitude": "16.65", "groundspeed": "0.1331551969051361", "velocity": {"vx": "-0.08", "vy": "0.1", "vz": "0.08"}, "head": "179", "hdop": "71", "vdop": "106", "satellites": "15", "fix_type": "4"}}
{"interface": "eth1", "timestamp": "2021-05-22 13:51:07.296711", "net_param": {"avg_latency": 42.548, "max_latency": 58.964, "packet_loss_rate": 0.0}, "uav_param": {"mode": "POSHOLD", "status": "STANDBY", "battery": "24.467", "attitude": {"pitch": "-0.03309650346636772", "yaw": "3.1371567249298096", "roll": "-0.0034934263676404953"}}, "gps_param": {"latitude": "44.9908783", "longitude": "10.45241", "altitude": "16.68", "groundspeed": "0.17866270244121552", "velocity": {"vx": "-0.13", "vy": "0.11", "vz": "0.09"}, "head": "179", "hdop": "66", "vdop": "95", "satellites": "16", "fix_type": "4"}}
{"interface": "eth1", "timestamp": "2021-05-22 13:51:07.296711", "net_param": {"avg_latency": 42.548, "max_latency": 58.964, "packet_loss_rate": 0.0}, "uav_param": {"mode": "POSHOLD", "status": "STANDBY", "battery": "24.467", "attitude": {"pitch": "-0.03309650346636772", "yaw": "3.1371567249298096", "roll": "-0.0034934263676404953"}}, "gps_param": {"latitude": "44.9908783", "longitude": "10.45241", "altitude": "16.68", "groundspeed": "0.17866270244121552", "velocity": {"vx": "-0.13", "vy": "0.11", "vz": "0.09"}, "head": "179", "hdop": "66", "vdop": "95", "satellites": "16", "fix_type": "4"}}
{"interface": "eth1", "timestamp": "2021-05-22 13:51:22.404736", "net_param": {"avg_latency": 46.742, "max_latency": 68.889, "packet_loss_rate": 0.0}, "uav_param": {"mode": "POSHOLD", "status": "ACTIVE", "battery": "24.101", "attitude": {"pitch": "-0.028079811483621597", "yaw": "3.131849527359009", "roll": "-0.0021059634163975716"}}, "gps_param": {"latitude": "44.9908821", "longitude": "10.4524081", "altitude": "16.61", "groundspeed": "0.04623900353908539", "velocity": {"vx": "-0.02", "vy": "0.03", "vz": "0.14"}, "head": "179", "hdop": "71", "vdop": "106", "satellites": "15", "fix_type": "4"}}
{"interface": "eth1", "timestamp": "2021-05-22 13:51:22.404736", "net_param": {"avg_latency": 46.742, "max_latency": 68.889, "packet_loss_rate": 0.0}, "uav_param": {"mode": "POSHOLD", "status": "ACTIVE", "battery": "24.101", "attitude": {"pitch": "-0.028079811483621597", "yaw": "3.131849527359009", "roll": "-0.0021059634163975716"}}, "gps_param": {"latitude": "44.9908821", "longitude": "10.4524081", "altitude": "16.61", "groundspeed": "0.04623900353908539", "velocity": {"vx": "-0.02", "vy": "0.03", "vz": "0.14"}, "head": "179", "hdop": "71", "vdop": "106", "satellites": "15", "fix_type": "4"}}
{"interface": "eth1", "timestamp": "2021-05-22 13:51:37.487516", "net_param": {"avg_latency": 44.115, "max_latency": 68.356, "packet_loss_rate": 0.0}, "uav_param": {"mode": "POSHOLD", "status": "ACTIVE", "battery": "23.53", "attitude": {"pitch": "-0.022525791078805923", "yaw": "3.089193105697632", "roll": "0.01980225183069706"}}, "gps_param": {"latitude": "44.9908822", "longitude": "10.4524078", "altitude": "22.89", "groundspeed": "0.1063925251364708", "velocity": {"vx": "-0.08", "vy": "0.06", "vz": "-0.13"}, "head": "176", "hdop": "66", "vdop": "95", "satellites": "16", "fix_type": "4"}}
{"interface": "eth1", "timestamp": "2021-05-22 13:51:37.487516", "net_param": {"avg_latency": 44.115, "max_latency": 68.356, "packet_loss_rate": 0.0}, "uav_param": {"mode": "POSHOLD", "status": "ACTIVE", "battery": "23.53", "attitude": {"pitch": "-0.022525791078805923", "yaw": "3.089193105697632", "roll": "0.01980225183069706"}}, "gps_param": {"latitude": "44.9908822", "longitude": "10.4524078", "altitude": "22.89", "groundspeed": "0.1063925251364708", "velocity": {"vx": "-0.08", "vy": "0.06", "vz": "-0.13"}, "head": "176", "hdop": "66", "vdop": "95", "satellites": "16", "fix_type": "4"}}
{"interface": "eth1", "timestamp": "2021-05-22 13:51:52.613077", "net_param": {"avg_latency": 52.403, "max_latency": 109.689, "packet_loss_rate": 0.0}, "uav_param": {"mode": "POSHOLD", "status": "ACTIVE", "battery": "23.42", "attitude": {"pitch": "-0.01157955639064312", "yaw": "3.06435227394104", "roll": "0.033467285335063934"}}, "gps_param": {"latitude": "44.990552", "longitude": "10.4524236", "altitude": "29.77", "groundspeed": "0.06616328656673431", "velocity": {"vx": "-0.06", "vy": "0.0", "vz": "-1.81"}, "head": "175", "hdop": "66", "vdop": "95", "satellites": "16", "fix_type": "4"}}
{"interface": "eth1", "timestamp": "2021-05-22 13:51:52.613077", "net_param": {"avg_latency": 52.403, "max_latency": 109.689, "packet_loss_rate": 0.0}, "uav_param": {"mode": "POSHOLD", "status": "ACTIVE", "battery": "23.42", "attitude": {"pitch": "-0.01157955639064312", "yaw": "3.06435227394104", "roll": "0.033467285335063934"}}, "gps_param": {"latitude": "44.990552", "longitude": "10.4524236", "altitude": "29.77", "groundspeed": "0.06616328656673431", "velocity": {"vx": "-0.06", "vy": "0.0", "vz": "-1.81"}, "head": "175", "hdop": "66", "vdop": "95", "satellites": "16", "fix_type": "4"}}
{"interface": "eth1", "timestamp": "2021-05-22 13:52:07.623153", "net_param": {"avg_latency": 44.524, "max_latency": 67.625, "packet_loss_rate": 0.0}, "uav_param": {"mode": "POSHOLD", "status": "ACTIVE", "battery": "23.426", "attitude": {"pitch": "-0.13654768466949463", "yaw": "1.8347634077072144", "roll": "-0.005768727511167526"}}, "gps_param": {"latitude": "44.9905289", "longitude": "10.4525108", "altitude": "41.62", "groundspeed": "3.9591338634490967", "velocity": {"vx": "-1.07", "vy": "3.8", "vz": "-0.07"}, "head": "105", "hdop": "66", "vdop": "96", "satellites": "16", "fix_type": "4"}}
{"interface": "eth1", "timestamp": "2021-05-22 13:52:07.623153", "net_param": {"avg_latency": 44.524, "max_latency": 67.625, "packet_loss_rate": 0.0}, "uav_param": {"mode": "POSHOLD", "status": "ACTIVE", "battery": "23.426", "attitude": {"pitch": "-0.13654768466949463", "yaw": "1.8347634077072144", "roll": "-0.005768727511167526"}}, "gps_param": {"latitude": "44.9905289", "longitude": "10.4525108", "altitude": "41.62", "groundspeed": "3.9591338634490967", "velocity": {"vx": "-1.07", "vy": "3.8", "vz": "-0.07"}, "head": "105", "hdop": "66", "vdop": "96", "satellites": "16", "fix_type": "4"}}
{"interface": "eth1", "timestamp": "2021-05-22 13:52:22.699835", "net_param": {"avg_latency": 41.471, "max_latency": 48.894, "packet_loss_rate": 0.0}, "uav_param": {"mode": "POSHOLD", "status": "ACTIVE", "battery": "23.386", "attitude": {"pitch": "-0.0433398075401783", "yaw": "-0.8425723910331726", "roll": "-0.007992446422576904"}}, "gps_param": {"latitude": "44.9903807", "longitude": "10.4531534", "altitude": "44.8", "groundspeed": "0.1710919290781021", "velocity": {"vx": "0.13", "vy": "0.1", "vz": "-0.46"}, "head": "311", "hdop": "66", "vdop": "96", "satellites": "16", "fix_type": "4"}}
{"interface": "eth1", "timestamp": "2021-05-22 13:52:22.699835", "net_param": {"avg_latency": 41.471, "max_latency": 48.894, "packet_loss_rate": 0.0}, "uav_param": {"mode": "POSHOLD", "status": "ACTIVE", "battery": "23.386", "attitude": {"pitch": "-0.0433398075401783", "yaw": "-0.8425723910331726", "roll": "-0.007992446422576904"}}, "gps_param": {"latitude": "44.9903807", "longitude": "10.4531534", "altitude": "44.8", "groundspeed": "0.1710919290781021", "velocity": {"vx": "0.13", "vy": "0.1", "vz": "-0.46"}, "head": "311", "hdop": "66", "vdop": "96", "satellites": "16", "fix_type": "4"}}
{"interface": "eth1", "timestamp": "2021-05-22 13:52:37.733570", "net_param": {"avg_latency": 46.159, "max_latency": 63.13, "packet_loss_rate": 0.0}, "uav_param": {"mode": "POSHOLD", "status": "ACTIVE", "battery": "23.405", "attitude": {"pitch": "-0.19984780251979828", "yaw": "-0.7801856398582458", "roll": "-0.012106843292713165"}}, "gps_param": {"latitude": "44.9909118", "longitude": "10.4523346", "altitude": "47.09", "groundspeed": "7.486952781677246", "velocity": {"vx": "5.35", "vy": "-5.23", "vz": "-0.24"}, "head": "315", "hdop": "66", "vdop": "96", "satellites": "16", "fix_type": "4"}}
{"interface": "eth1", "timestamp": "2021-05-22 13:52:37.733570", "net_param": {"avg_latency": 46.159, "max_latency": 63.13, "packet_loss_rate": 0.0}, "uav_param": {"mode": "POSHOLD", "status": "ACTIVE", "battery": "23.405", "attitude": {"pitch": "-0.19984780251979828", "yaw": "-0.7801856398582458", "roll": "-0.012106843292713165"}}, "gps_param": {"latitude": "44.9909118", "longitude": "10.4523346", "altitude": "47.09", "groundspeed": "7.486952781677246", "velocity": {"vx": "5.35", "vy": "-5.23", "vz": "-0.24"}, "head": "315", "hdop": "66", "vdop": "96", "satellites": "16", "fix_type": "4"}}
{"interface": "eth1", "timestamp": "2021-05-22 13:52:52.865908", "net_param": {"avg_latency": 56.546, "max_latency": 146.648, "packet_loss_rate": 0.0}, "uav_param": {"mode": "POSHOLD", "status": "ACTIVE", "battery": "23.267", "attitude": {"pitch": "-0.18358686566352844", "yaw": "2.661301851272583", "roll": "0.10024803876876831"}}, "gps_param": {"latitude": "44.9904843", "longitude": "10.4519077", "altitude": "49.9", "groundspeed": "8.216471672058105", "velocity": {"vx": "-6.99", "vy": "4.3", "vz": "-0.42"}, "head": "152", "hdop": "66", "vdop": "96", "satellites": "16", "fix_type": "4"}}
{"interface": "eth1", "timestamp": "2021-05-22 13:52:52.865908", "net_param": {"avg_latency": 56.546, "max_latency": 146.648, "packet_loss_rate": 0.0}, "uav_param": {"mode": "POSHOLD", "status": "ACTIVE", "battery": "23.267", "attitude": {"pitch": "-0.18358686566352844", "yaw": "2.661301851272583", "roll": "0.10024803876876831"}}, "gps_param": {"latitude": "44.9904843", "longitude": "10.4519077", "altitude": "49.9", "groundspeed": "8.216471672058105", "velocity": {"vx": "-6.99", "vy": "4.3", "vz": "-0.42"}, "head": "152", "hdop": "66", "vdop": "96", "satellites": "16", "fix_type": "4"}}
{"interface": "eth1", "timestamp": "2021-05-22 13:53:07.947249", "net_param": {"avg_latency": 42.232, "max_latency": 57.682, "packet_loss_rate": 0.0}, "uav_param": {"mode": "POSHOLD", "status": "ACTIVE", "battery": "23.169", "attitude": {"pitch": "-0.03078537806868553", "yaw": "0.23418046534061432", "roll": "-0.032871346920728683"}}, "gps_param": {"latitude": "44.9902153", "longitude": "10.4530415", "altitude": "56.6", "groundspeed": "0.38117319345474243", "velocity": {"vx": "-0.37", "vy": "0.04", "vz": "-0.73"}, "head": "13", "hdop": "66", "vdop": "96", "satellites": "16", "fix_type": "4"}}
{"interface": "eth1", "timestamp": "2021-05-22 13:53:07.947249", "net_param": {"avg_latency": 42.232, "max_latency": 57.682, "packet_loss_rate": 0.0}, "uav_param": {"mode": "POSHOLD", "status": "ACTIVE", "battery": "23.169", "attitude": {"pitch": "-0.03078537806868553", "yaw": "0.23418046534061432", "roll": "-0.032871346920728683"}}, "gps_param": {"latitude": "44.9902153", "longitude": "10.4530415", "altitude": "56.6", "groundspeed": "0.38117319345474243", "velocity": {"vx": "-0.37", "vy": "0.04", "vz": "-0.73"}, "head": "13", "hdop": "66", "vdop": "96", "satellites": "16", "fix_type": "4"}}
{"interface": "eth1", "timestamp": "2021-05-22 13:53:22.975134", "net_param": {"avg_latency": 49.261, "max_latency": 118.163, "packet_loss_rate": 0.0}, "uav_param": {"mode": "POSHOLD", "status": "ACTIVE", "battery": "23.175", "attitude": {"pitch": "-0.057092711329460144", "yaw": "0.4338502585887909", "roll": "-0.0495523139834404"}}, "gps_param": {"latitude": "44.9910582", "longitude": "10.4536162", "altitude": "63.74", "groundspeed": "12.900182723999023", "velocity": {"vx": "11.65", "vy": "5.52", "vz": "-0.48"}, "head": "24", "hdop": "66", "vdop": "96", "satellites": "16", "fix_type": "4"}}
{"interface": "eth1", "timestamp": "2021-05-22 13:53:22.975134", "net_param": {"avg_latency": 49.261, "max_latency": 118.163, "packet_loss_rate": 0.0}, "uav_param": {"mode": "POSHOLD", "status": "ACTIVE", "battery": "23.175", "attitude": {"pitch": "-0.057092711329460144", "yaw": "0.4338502585887909", "roll": "-0.0495523139834404"}}, "gps_param": {"latitude": "44.9910582", "longitude": "10.4536162", "altitude": "63.74", "groundspeed": "12.900182723999023", "velocity": {"vx": "11.65", "vy": "5.52", "vz": "-0.48"}, "head": "24", "hdop": "66", "vdop": "96", "satellites": "16", "fix_type": "4"}}
{"interface": "eth1", "timestamp": "2021-05-22 13:53:38.058393", "net_param": {"avg_latency": 49.457, "max_latency": 82.247, "packet_loss_rate": 0.0}, "uav_param": {"mode": "POSHOLD", "status": "ACTIVE", "battery": "22.947", "attitude": {"pitch": "0.15609948337078094", "yaw": "0.8971728682518005", "roll": "-0.010368185117840767"}}, "gps_param": {"latitude": "44.9908798", "longitude": "10.4530977", "altitude": "69.27", "groundspeed": "11.868926048278809", "velocity": {"vx": "-7.46", "vy": "-9.22", "vz": "-0.2"}, "head": "51", "hdop": "66", "vdop": "96", "satellites": "16", "fix_type": "4"}}
{"interface": "eth1", "timestamp": "2021-05-22 13:53:38.058393", "net_param": {"avg_latency": 49.457, "max_latency": 82.247, "packet_loss_rate": 0.0}, "uav_param": {"mode": "POSHOLD", "status": "ACTIVE", "battery": "22.947", "attitude": {"pitch": "0.15609948337078094", "yaw": "0.8971728682518005", "roll": "-0.010368185117840767"}}, "gps_param": {"latitude": "44.9908798", "longitude": "10.4530977", "altitude": "69.27", "groundspeed": "11.868926048278809", "velocity": {"vx": "-7.46", "vy": "-9.22", "vz": "-0.2"}, "head": "51", "hdop": "66", "vdop": "96", "satellites": "16", "fix_type": "4"}}
{"interface": "eth1", "timestamp": "2021-05-22 13:53:53.176006", "net_param": {"avg_latency": 47.303, "max_latency": 65.805, "packet_loss_rate": 0.0}, "uav_param": {"mode": "POSHOLD", "status": "ACTIVE", "battery": "22.848", "attitude": {"pitch": "0.00294667761772871", "yaw": "3.00302791595459", "roll": "0.027552498504519463"}}, "gps_param": {"latitude": "44.9902105", "longitude": "10.4519543", "altitude": "72.83", "groundspeed": "0.13084189593791962", "velocity": {"vx": "0.09", "vy": "0.09", "vz": "-0.34"}, "head": "172", "hdop": "66", "vdop": "96", "satellites": "16", "fix_type": "4"}}
{"interface": "eth1", "timestamp": "2021-05-22 13:53:53.176006", "net_param": {"avg_latency": 47.303, "max_latency": 65.805, "packet_loss_rate": 0.0}, "uav_param": {"mode": "POSHOLD", "status": "ACTIVE", "battery": "22.848", "attitude": {"pitch": "0.00294667761772871", "yaw": "3.00302791595459", "roll": "0.027552498504519463"}}, "gps_param": {"latitude": "44.9902105", "longitude": "10.4519543", "altitude": "72.83", "groundspeed": "0.13084189593791962", "velocity": {"vx": "0.09", "vy": "0.09", "vz": "-0.34"}, "head": "172", "hdop": "66", "vdop": "96", "satellites": "16", "fix_type": "4"}}
{"interface": "eth1", "timestamp": "2021-05-22 13:54:08.286616", "net_param": {"avg_latency": 46.285, "max_latency": 57.205, "packet_loss_rate": 0.0}, "uav_param": {"mode": "POSHOLD", "status": "ACTIVE", "battery": "22.796", "attitude": {"pitch": "-0.028535854071378708", "yaw": "-3.1135430335998535", "roll": "0.04807902127504349"}}, "gps_param": {"latitude": "44.9904408", "longitude": "10.4526549", "altitude": "73.76", "groundspeed": "0.19123557209968567", "velocity": {"vx": "0.07", "vy": "0.17", "vz": "-0.25"}, "head": "181", "hdop": "66", "vdop": "96", "satellites": "16", "fix_type": "4"}}
{"interface": "eth1", "timestamp": "2021-05-22 13:54:08.286616", "net_param": {"avg_latency": 46.285, "max_latency": 57.205, "packet_loss_rate": 0.0}, "uav_param": {"mode": "POSHOLD", "status": "ACTIVE", "battery": "22.796", "attitude": {"pitch": "-0.028535854071378708", "yaw": "-3.1135430335998535", "roll": "0.04807902127504349"}}, "gps_param": {"latitude": "44.9904408", "longitude": "10.4526549", "altitude": "73.76", "groundspeed": "0.19123557209968567", "velocity": {"vx": "0.07", "vy": "0.17", "vz": "-0.25"}, "head": "181", "hdop": "66", "vdop": "96", "satellites": "16", "fix_type": "4"}}
{"interface": "eth1", "timestamp": "2021-05-22 13:54:23.340343", "net_param": {"avg_latency": 44.983, "max_latency": 55.907, "packet_loss_rate": 0.0}, "uav_param": {"mode": "POSHOLD", "status": "ACTIVE", "battery": "22.723", "attitude": {"pitch": "-0.005893691908568144", "yaw": "-3.13580322265625", "roll": "0.02843637391924858"}}, "gps_param": {"latitude": "44.9904397", "longitude": "10.4526535", "altitude": "74.73", "groundspeed": "0.0533565878868103", "velocity": {"vx": "0.04", "vy": "-0.01", "vz": "-0.05"}, "head": "180", "hdop": "66", "vdop": "96", "satellites": "16", "fix_type": "4"}}
{"interface": "eth1", "timestamp": "2021-05-22 13:54:23.340343", "net_param": {"avg_latency": 44.983, "max_latency": 55.907, "packet_loss_rate": 0.0}, "uav_param": {"mode": "POSHOLD", "status": "ACTIVE", "battery": "22.723", "attitude": {"pitch": "-0.005893691908568144", "yaw": "-3.13580322265625", "roll": "0.02843637391924858"}}, "gps_param": {"latitude": "44.9904397", "longitude": "10.4526535", "altitude": "74.73", "groundspeed": "0.0533565878868103", "velocity": {"vx": "0.04", "vy": "-0.01", "vz": "-0.05"}, "head": "180", "hdop": "66", "vdop": "96", "satellites": "16", "fix_type": "4"}}
{"interface": "eth1", "timestamp": "2021-05-22 13:54:38.463085", "net_param": {"avg_latency": 342.263, "max_latency": 1865.658, "packet_loss_rate": 0.0}, "uav_param": {"mode": "POSHOLD", "status": "ACTIVE", "battery": "22.673", "attitude": {"pitch": "-0.05087219923734665", "yaw": "-3.0949273109436035", "roll": "0.0361982025206089"}}, "gps_param": {"latitude": "44.9907183", "longitude": "10.4526364", "altitude": "75.16", "groundspeed": "0.40079614520072937", "velocity": {"vx": "0.38", "vy": "0.09", "vz": "-0.23"}, "head": "182", "hdop": "66", "vdop": "96", "satellites": "16", "fix_type": "4"}}
{"interface": "eth1", "timestamp": "2021-05-22 13:54:38.463085", "net_param": {"avg_latency": 342.263, "max_latency": 1865.658, "packet_loss_rate": 0.0}, "uav_param": {"mode": "POSHOLD", "status": "ACTIVE", "battery": "22.673", "attitude": {"pitch": "-0.05087219923734665", "yaw": "-3.0949273109436035", "roll": "0.0361982025206089"}}, "gps_param": {"latitude": "44.9907183", "longitude": "10.4526364", "altitude": "75.16", "groundspeed": "0.40079614520072937", "velocity": {"vx": "0.38", "vy": "0.09", "vz": "-0.23"}, "head": "182", "hdop": "66", "vdop": "96", "satellites": "16", "fix_type": "4"}}
{"interface": "eth1", "timestamp": "2021-05-22 13:54:53.570261", "net_param": {"avg_latency": 77.796, "max_latency": 138.975, "packet_loss_rate": 0.0}, "uav_param": {"mode": "POSHOLD", "status": "ACTIVE", "battery": "22.759", "attitude": {"pitch": "-0.02120395004749298", "yaw": "1.684462308883667", "roll": "0.00013957731425762177"}}, "gps_param": {"latitude": "44.9906065", "longitude": "10.453767", "altitude": "75.19", "groundspeed": "8.918232917785645", "velocity": {"vx": "-1.03", "vy": "8.85", "vz": "-0.18"}, "head": "96", "hdop": "66", "vdop": "96", "satellites": "16", "fix_type": "4"}}
{"interface": "eth1", "timestamp": "2021-05-22 13:54:53.570261", "net_param": {"avg_latency": 77.796, "max_latency": 138.975, "packet_loss_rate": 0.0}, "uav_param": {"mode": "POSHOLD", "status": "ACTIVE", "battery": "22.759", "attitude": {"pitch": "-0.02120395004749298", "yaw": "1.684462308883667", "roll": "0.00013957731425762177"}}, "gps_param": {"latitude": "44.9906065", "longitude": "10.453767", "altitude": "75.19", "groundspeed": "8.918232917785645", "velocity": {"vx": "-1.03", "vy": "8.85", "vz": "-0.18"}, "head": "96", "hdop": "66", "vdop": "96", "satellites": "16", "fix_type": "4"}}
{"interface": "eth1", "timestamp": "2021-05-22 13:55:08.699958", "net_param": {"avg_latency": 84.888, "max_latency": 137.879, "packet_loss_rate": 0.0}, "uav_param": {"mode": "POSHOLD", "status": "ACTIVE", "battery": "22.614", "attitude": {"pitch": "-0.20925332605838776", "yaw": "-1.0991852283477783", "roll": "0.2095201462507248"}}, "gps_param": {"latitude": "44.9899197", "longitude": "10.4538368", "altitude": "75.08", "groundspeed": "4.184019088745117", "velocity": {"vx": "0.14", "vy": "-4.18", "vz": "-0.34"}, "head": "297", "hdop": "66", "vdop": "96", "satellites": "16", "fix_type": "4"}}
{"interface": "eth1", "timestamp": "2021-05-22 13:55:08.699958", "net_param": {"avg_latency": 84.888, "max_latency": 137.879, "packet_loss_rate": 0.0}, "uav_param": {"mode": "POSHOLD", "status": "ACTIVE", "battery": "22.614", "attitude": {"pitch": "-0.20925332605838776", "yaw": "-1.0991852283477783", "roll": "0.2095201462507248"}}, "gps_param": {"latitude": "44.9899197", "longitude": "10.4538368", "altitude": "75.08", "groundspeed": "4.184019088745117", "velocity": {"vx": "0.14", "vy": "-4.18", "vz": "-0.34"}, "head": "297", "hdop": "66", "vdop": "96", "satellites": "16", "fix_type": "4"}}
{"interface": "eth1", "timestamp": "2021-05-22 13:55:23.680786", "net_param": {"avg_latency": 68.852, "max_latency": 145.952, "packet_loss_rate": 0.0}, "uav_param": {"mode": "POSHOLD", "status": "ACTIVE", "battery": "22.46", "attitude": {"pitch": "-0.36875414848327637", "yaw": "-1.120337963104248", "roll": "-0.018290670588612556"}}, "gps_param": {"latitude": "44.9903582", "longitude": "10.4524805", "altitude": "75.24", "groundspeed": "9.893940925598145", "velocity": {"vx": "4.33", "vy": "-8.89", "vz": "-0.15"}, "head": "295", "hdop": "66", "vdop": "96", "satellites": "16", "fix_type": "4"}}
{"interface": "eth1", "timestamp": "2021-05-22 13:55:23.680786", "net_param": {"avg_latency": 68.852, "max_latency": 145.952, "packet_loss_rate": 0.0}, "uav_param": {"mode": "POSHOLD", "status": "ACTIVE", "battery": "22.46", "attitude": {"pitch": "-0.36875414848327637", "yaw": "-1.120337963104248", "roll": "-0.018290670588612556"}}, "gps_param": {"latitude": "44.9903582", "longitude": "10.4524805", "altitude": "75.24", "groundspeed": "9.893940925598145", "velocity": {"vx": "4.33", "vy": "-8.89", "vz": "-0.15"}, "head": "295", "hdop": "66", "vdop": "96", "satellites": "16", "fix_type": "4"}}
{"interface": "eth1", "timestamp": "2021-05-22 13:55:38.729874", "net_param": {"avg_latency": 43.625, "max_latency": 58.889, "packet_loss_rate": 0.0}, "uav_param": {"mode": "POSHOLD", "status": "ACTIVE", "battery": "22.495", "attitude": {"pitch": "0.17217585444450378", "yaw": "1.90482497215271", "roll": "0.012400136329233646"}}, "gps_param": {"latitude": "44.9901392", "longitude": "10.4518314", "altitude": "74.99", "groundspeed": "1.7312490940093994", "velocity": {"vx": "-0.39", "vy": "1.68", "vz": "-0.4"}, "head": "109", "hdop": "68", "vdop": "96", "satellites": "15", "fix_type": "4"}}
{"interface": "eth1", "timestamp": "2021-05-22 13:55:38.729874", "net_param": {"avg_latency": 43.625, "max_latency": 58.889, "packet_loss_rate": 0.0}, "uav_param": {"mode": "POSHOLD", "status": "ACTIVE", "battery": "22.495", "attitude": {"pitch": "0.17217585444450378", "yaw": "1.90482497215271", "roll": "0.012400136329233646"}}, "gps_param": {"latitude": "44.9901392", "longitude": "10.4518314", "altitude": "74.99", "groundspeed": "1.7312490940093994", "velocity": {"vx": "-0.39", "vy": "1.68", "vz": "-0.4"}, "head": "109", "hdop": "68", "vdop": "96", "satellites": "15", "fix_type": "4"}}
{"interface": "eth1", "timestamp": "2021-05-22 13:55:53.859222", "net_param": {"avg_latency": 55.031, "max_latency": 123.466, "packet_loss_rate": 0.0}, "uav_param": {"mode": "POSHOLD", "status": "ACTIVE", "battery": "22.317", "attitude": {"pitch": "-0.43591710925102234", "yaw": "-0.18212614953517914", "roll": "-0.014886388555169106"}}, "gps_param": {"latitude": "44.9903522", "longitude": "10.4523601", "altitude": "75.9", "groundspeed": "13.245087623596191", "velocity": {"vx": "13.02", "vy": "-2.39", "vz": "0.49"}, "head": "349", "hdop": "66", "vdop": "96", "satellites": "16", "fix_type": "4"}}
{"interface": "eth1", "timestamp": "2021-05-22 13:55:53.859222", "net_param": {"avg_latency": 55.031, "max_latency": 123.466, "packet_loss_rate": 0.0}, "uav_param": {"mode": "POSHOLD", "status": "ACTIVE", "battery": "22.317", "attitude": {"pitch": "-0.43591710925102234", "yaw": "-0.18212614953517914", "roll": "-0.014886388555169106"}}, "gps_param": {"latitude": "44.9903522", "longitude": "10.4523601", "altitude": "75.9", "groundspeed": "13.245087623596191", "velocity": {"vx": "13.02", "vy": "-2.39", "vz": "0.49"}, "head": "349", "hdop": "66", "vdop": "96", "satellites": "16", "fix_type": "4"}}
{"interface": "eth1", "timestamp": "2021-05-22 13:56:08.921897", "net_param": {"avg_latency": 97.095, "max_latency": 155.497, "packet_loss_rate": 0.0}, "uav_param": {"mode": "POSHOLD", "status": "ACTIVE", "battery": "22.001", "attitude": {"pitch": "0.43871328234672546", "yaw": "-0.2265048772096634", "roll": "-0.06214386597275734"}}, "gps_param": {"latitude": "44.9908885", "longitude": "10.4522244", "altitude": "75.72", "groundspeed": "15.833008766174316", "velocity": {"vx": "-15.44", "vy": "3.47", "vz": "0.27"}, "head": "347", "hdop": "66", "vdop": "96", "satellites": "16", "fix_type": "4"}}
{"interface": "eth1", "timestamp": "2021-05-22 13:56:08.921897", "net_param": {"avg_latency": 97.095, "max_latency": 155.497, "packet_loss_rate": 0.0}, "uav_param": {"mode": "POSHOLD", "status": "ACTIVE", "battery": "22.001", "attitude": {"pitch": "0.43871328234672546", "yaw": "-0.2265048772096634", "roll": "-0.06214386597275734"}}, "gps_param": {"latitude": "44.9908885", "longitude": "10.4522244", "altitude": "75.72", "groundspeed": "15.833008766174316", "velocity": {"vx": "-15.44", "vy": "3.47", "vz": "0.27"}, "head": "347", "hdop": "66", "vdop": "96", "satellites": "16", "fix_type": "4"}}
{"interface": "eth1", "timestamp": "2021-05-22 13:56:23.958701", "net_param": {"avg_latency": 45.851, "max_latency": 78.832, "packet_loss_rate": 0.0}, "uav_param": {"mode": "POSHOLD", "status": "ACTIVE", "battery": "22.351", "attitude": {"pitch": "-0.027221769094467163", "yaw": "-0.15384288132190704", "roll": "-0.013937933370471"}}, "gps_param": {"latitude": "44.9898767", "longitude": "10.4525587", "altitude": "75.32", "groundspeed": "0.24157698452472687", "velocity": {"vx": "0.23", "vy": "0.06", "vz": "-0.07"}, "head": "351", "hdop": "66", "vdop": "96", "satellites": "16", "fix_type": "4"}}
{"interface": "eth1", "timestamp": "2021-05-22 13:56:23.958701", "net_param": {"avg_latency": 45.851, "max_latency": 78.832, "packet_loss_rate": 0.0}, "uav_param": {"mode": "POSHOLD", "status": "ACTIVE", "battery": "22.351", "attitude": {"pitch": "-0.027221769094467163", "yaw": "-0.15384288132190704", "roll": "-0.013937933370471"}}, "gps_param": {"latitude": "44.9898767", "longitude": "10.4525587", "altitude": "75.32", "groundspeed": "0.24157698452472687", "velocity": {"vx": "0.23", "vy": "0.06", "vz": "-0.07"}, "head": "351", "hdop": "66", "vdop": "96", "satellites": "16", "fix_type": "4"}}
{"interface": "eth1", "timestamp": "2021-05-22 13:56:39.070713", "net_param": {"avg_latency": 44.09, "max_latency": 53.141, "packet_loss_rate": 0.0}, "uav_param": {"mode": "POSHOLD", "status": "ACTIVE", "battery": "22.358", "attitude": {"pitch": "-0.18794141709804535", "yaw": "0.0903395339846611", "roll": "-0.051358338445425034"}}, "gps_param": {"latitude": "44.9901024", "longitude": "10.4526156", "altitude": "75.49", "groundspeed": "5.362101078033447", "velocity": {"vx": "5.33", "vy": "0.54", "vz": "0.08"}, "head": "5", "hdop": "66", "vdop": "96", "satellites": "16", "fix_type": "4"}}
{"interface": "eth1", "timestamp": "2021-05-22 13:56:39.070713", "net_param": {"avg_latency": 44.09, "max_latency": 53.141, "packet_loss_rate": 0.0}, "uav_param": {"mode": "POSHOLD", "status": "ACTIVE", "battery": "22.358", "attitude": {"pitch": "-0.18794141709804535", "yaw": "0.0903395339846611", "roll": "-0.051358338445425034"}}, "gps_param": {"latitude": "44.9901024", "longitude": "10.4526156", "altitude": "75.49", "groundspeed": "5.362101078033447", "velocity": {"vx": "5.33", "vy": "0.54", "vz": "0.08"}, "head": "5", "hdop": "66", "vdop": "96", "satellites": "16", "fix_type": "4"}}
{"interface": "eth1", "timestamp": "2021-05-22 13:56:54.131177", "net_param": {"avg_latency": 43.667, "max_latency": 58.679, "packet_loss_rate": 0.0}, "uav_param": {"mode": "POSHOLD", "status": "ACTIVE", "battery": "22.08", "attitude": {"pitch": "-0.4020143151283264", "yaw": "-2.993370532989502", "roll": "0.39679500460624695"}}, "gps_param": {"latitude": "44.9907448", "longitude": "10.4535882", "altitude": "75.08", "groundspeed": "4.954286098480225", "velocity": {"vx": "-2.54", "vy": "4.25", "vz": "-0.23"}, "head": "188", "hdop": "66", "vdop": "96", "satellites": "16", "fix_type": "4"}}
{"interface": "eth1", "timestamp": "2021-05-22 13:56:54.131177", "net_param": {"avg_latency": 43.667, "max_latency": 58.679, "packet_loss_rate": 0.0}, "uav_param": {"mode": "POSHOLD", "status": "ACTIVE", "battery": "22.08", "attitude": {"pitch": "-0.4020143151283264", "yaw": "-2.993370532989502", "roll": "0.39679500460624695"}}, "gps_param": {"latitude": "44.9907448", "longitude": "10.4535882", "altitude": "75.08", "groundspeed": "4.954286098480225", "velocity": {"vx": "-2.54", "vy": "4.25", "vz": "-0.23"}, "head": "188", "hdop": "66", "vdop": "96", "satellites": "16", "fix_type": "4"}}
{"interface": "eth1", "timestamp": "2021-05-22 13:57:09.267317", "net_param": {"avg_latency": 40.826, "max_latency": 58.945, "packet_loss_rate": 0.0}, "uav_param": {"mode": "POSHOLD", "status": "ACTIVE", "battery": "22.275", "attitude": {"pitch": "-0.18367697298526764", "yaw": "-1.6562055349349976", "roll": "0.00906590186059475"}}, "gps_param": {"latitude": "44.9902625", "longitude": "10.4529694", "altitude": "75.29", "groundspeed": "8.18577766418457", "velocity": {"vx": "-0.65", "vy": "-8.15", "vz": "-0.07"}, "head": "265", "hdop": "66", "vdop": "96", "satellites": "16", "fix_type": "4"}}
{"interface": "eth1", "timestamp": "2021-05-22 13:57:09.267317", "net_param": {"avg_latency": 40.826, "max_latency": 58.945, "packet_loss_rate": 0.0}, "uav_param": {"mode": "POSHOLD", "status": "ACTIVE", "battery": "22.275", "attitude": {"pitch": "-0.18367697298526764", "yaw": "-1.6562055349349976", "roll": "0.00906590186059475"}}, "gps_param": {"latitude": "44.9902625", "longitude": "10.4529694", "altitude": "75.29", "groundspeed": "8.18577766418457", "velocity": {"vx": "-0.65", "vy": "-8.15", "vz": "-0.07"}, "head": "265", "hdop": "66", "vdop": "96", "satellites": "16", "fix_type": "4"}}
{"interface": "eth1", "timestamp": "2021-05-22 13:57:24.347567", "net_param": {"avg_latency": 43.813, "max_latency": 48.967, "packet_loss_rate": 0.0}, "uav_param": {"mode": "POSHOLD", "status": "ACTIVE", "battery": "22.232", "attitude": {"pitch": "-0.11236295849084854", "yaw": "-0.6557457447052002", "roll": "-0.027193795889616013"}}, "gps_param": {"latitude": "44.9902728", "longitude": "10.4522718", "altitude": "74.3", "groundspeed": "2.786834955215454", "velocity": {"vx": "2.3", "vy": "-1.67", "vz": "0.49"}, "head": "322", "hdop": "66", "vdop": "96", "satellites": "16", "fix_type": "4"}}
{"interface": "eth1", "timestamp": "2021-05-22 13:57:24.347567", "net_param": {"avg_latency": 43.813, "max_latency": 48.967, "packet_loss_rate": 0.0}, "uav_param": {"mode": "POSHOLD", "status": "ACTIVE", "battery": "22.232", "attitude": {"pitch": "-0.11236295849084854", "yaw": "-0.6557457447052002", "roll": "-0.027193795889616013"}}, "gps_param": {"latitude": "44.9902728", "longitude": "10.4522718", "altitude": "74.3", "groundspeed": "2.786834955215454", "velocity": {"vx": "2.3", "vy": "-1.67", "vz": "0.49"}, "head": "322", "hdop": "66", "vdop": "96", "satellites": "16", "fix_type": "4"}}
{"interface": "eth1", "timestamp": "2021-05-22 13:57:40.416356", "net_param": {"avg_latency": 70.833, "max_latency": 144.209, "packet_loss_rate": 10.0}, "uav_param": {"mode": "POSHOLD", "status": "ACTIVE", "battery": "22.114", "attitude": {"pitch": "0.249604731798172", "yaw": "-2.753314971923828", "roll": "-0.003938956186175346"}}, "gps_param": {"latitude": "44.990498", "longitude": "10.452193", "altitude": "68.73", "groundspeed": "4.099754810333252", "velocity": {"vx": "3.82", "vy": "1.48", "vz": "-0.03"}, "head": "202", "hdop": "66", "vdop": "96", "satellites": "16", "fix_type": "4"}}
{"interface": "eth1", "timestamp": "2021-05-22 13:57:40.416356", "net_param": {"avg_latency": 70.833, "max_latency": 144.209, "packet_loss_rate": 10.0}, "uav_param": {"mode": "POSHOLD", "status": "ACTIVE", "battery": "22.114", "attitude": {"pitch": "0.249604731798172", "yaw": "-2.753314971923828", "roll": "-0.003938956186175346"}}, "gps_param": {"latitude": "44.990498", "longitude": "10.452193", "altitude": "68.73", "groundspeed": "4.099754810333252", "velocity": {"vx": "3.82", "vy": "1.48", "vz": "-0.03"}, "head": "202", "hdop": "66", "vdop": "96", "satellites": "16", "fix_type": "4"}}
{"interface": "eth1", "timestamp": "2021-05-22 13:57:55.668768", "net_param": {"avg_latency": 89.929, "max_latency": 138.935, "packet_loss_rate": 0.0}, "uav_param": {"mode": "RTL", "status": "ACTIVE", "battery": "22.186", "attitude": {"pitch": "0.05723235383629799", "yaw": "-2.931619167327881", "roll": "0.02097611501812935"}}, "gps_param": {"latitude": "44.9907666", "longitude": "10.4523384", "altitude": "66.23", "groundspeed": "4.3804216384887695", "velocity": {"vx": "3.99", "vy": "1.78", "vz": "0.35"}, "head": "192", "hdop": "66", "vdop": "96", "satellites": "16", "fix_type": "4"}}
{"interface": "eth1", "timestamp": "2021-05-22 13:57:55.668768", "net_param": {"avg_latency": 89.929, "max_latency": 138.935, "packet_loss_rate": 0.0}, "uav_param": {"mode": "RTL", "status": "ACTIVE", "battery": "22.186", "attitude": {"pitch": "0.05723235383629799", "yaw": "-2.931619167327881", "roll": "0.02097611501812935"}}, "gps_param": {"latitude": "44.9907666", "longitude": "10.4523384", "altitude": "66.23", "groundspeed": "4.3804216384887695", "velocity": {"vx": "3.99", "vy": "1.78", "vz": "0.35"}, "head": "192", "hdop": "66", "vdop": "96", "satellites": "16", "fix_type": "4"}}
{"interface": "eth1", "timestamp": "2021-05-22 13:58:10.588973", "net_param": {"avg_latency": 64.679, "max_latency": 139.508, "packet_loss_rate": 0.0}, "uav_param": {"mode": "RTL", "status": "ACTIVE", "battery": "22.087", "attitude": {"pitch": "-0.030915353447198868", "yaw": "-2.8601975440979004", "roll": "0.0265742689371109"}}, "gps_param": {"latitude": "44.9908801", "longitude": "10.4524077", "altitude": "57.23", "groundspeed": "0.14084841310977936", "velocity": {"vx": "-0.12", "vy": "-0.05", "vz": "1.66"}, "head": "196", "hdop": "66", "vdop": "96", "satellites": "16", "fix_type": "4"}}
{"interface": "eth1", "timestamp": "2021-05-22 13:58:10.588973", "net_param": {"avg_latency": 64.679, "max_latency": 139.508, "packet_loss_rate": 0.0}, "uav_param": {"mode": "RTL", "status": "ACTIVE", "battery": "22.087", "attitude": {"pitch": "-0.030915353447198868", "yaw": "-2.8601975440979004", "roll": "0.0265742689371109"}}, "gps_param": {"latitude": "44.9908801", "longitude": "10.4524077", "altitude": "57.23", "groundspeed": "0.14084841310977936", "velocity": {"vx": "-0.12", "vy": "-0.05", "vz": "1.66"}, "head": "196", "hdop": "66", "vdop": "96", "satellites": "16", "fix_type": "4"}}
{"interface": "eth1", "timestamp": "2021-05-22 13:58:25.645693", "net_param": {"avg_latency": 39.982, "max_latency": 49.023, "packet_loss_rate": 0.0}, "uav_param": {"mode": "RTL", "status": "ACTIVE", "battery": "22.086", "attitude": {"pitch": "-0.019939519464969635", "yaw": "-2.8834855556488037", "roll": "0.02306327223777771"}}, "gps_param": {"latitude": "44.990882", "longitude": "10.452393", "altitude": "34.59", "groundspeed": "0.04379964992403984", "velocity": {"vx": "0.04", "vy": "-0.01", "vz": "1.52"}, "head": "194", "hdop": "69", "vdop": "104", "satellites": "14", "fix_type": "4"}}
{"interface": "eth1", "timestamp": "2021-05-22 13:58:25.645693", "net_param": {"avg_latency": 39.982, "max_latency": 49.023, "packet_loss_rate": 0.0}, "uav_param": {"mode": "RTL", "status": "ACTIVE", "battery": "22.086", "attitude": {"pitch": "-0.019939519464969635", "yaw": "-2.8834855556488037", "roll": "0.02306327223777771"}}, "gps_param": {"latitude": "44.990882", "longitude": "10.452393", "altitude": "34.59", "groundspeed": "0.04379964992403984", "velocity": {"vx": "0.04", "vy": "-0.01", "vz": "1.52"}, "head": "194", "hdop": "69", "vdop": "104", "satellites": "14", "fix_type": "4"}}
{"interface": "eth1", "timestamp": "2021-05-22 13:58:40.703752", "net_param": {"avg_latency": 46.406, "max_latency": 68.066, "packet_loss_rate": 0.0}, "uav_param": {"mode": "RTL", "status": "ACTIVE", "battery": "22.033", "attitude": {"pitch": "-0.03062739223241806", "yaw": "-2.879793405532837", "roll": "0.010653102770447731"}}, "gps_param": {"latitude": "44.9908827", "longitude": "10.4523928", "altitude": "21.97", "groundspeed": "0.018737532198429108", "velocity": {"vx": "-0.01", "vy": "0.0", "vz": "0.59"}, "head": "195", "hdop": "69", "vdop": "104", "satellites": "14", "fix_type": "4"}}
{"interface": "eth1", "timestamp": "2021-05-22 13:58:40.703752", "net_param": {"avg_latency": 46.406, "max_latency": 68.066, "packet_loss_rate": 0.0}, "uav_param": {"mode": "RTL", "status": "ACTIVE", "battery": "22.033", "attitude": {"pitch": "-0.03062739223241806", "yaw": "-2.879793405532837", "roll": "0.010653102770447731"}}, "gps_param": {"latitude": "44.9908827", "longitude": "10.4523928", "altitude": "21.97", "groundspeed": "0.018737532198429108", "velocity": {"vx": "-0.01", "vy": "0.0", "vz": "0.59"}, "head": "195", "hdop": "69", "vdop": "104", "satellites": "14", "fix_type": "4"}}
{"interface": "eth1", "timestamp": "2021-05-22 13:58:55.797599", "net_param": {"avg_latency": 42.553, "max_latency": 49.027, "packet_loss_rate": 0.0}, "uav_param": {"mode": "RTL", "status": "STANDBY", "battery": "22.697", "attitude": {"pitch": "0.053708549588918686", "yaw": "-2.8915047645568848", "roll": "0.017469031736254692"}}, "gps_param": {"latitude": "44.9908823", "longitude": "10.4523965", "altitude": "16.37", "groundspeed": "0.042446352541446686", "velocity": {"vx": "-0.03", "vy": "0.01", "vz": "0.09"}, "head": "194", "hdop": "75", "vdop": "114", "satellites": "13", "fix_type": "4"}}
{"interface": "eth1", "timestamp": "2021-05-22 13:58:55.797599", "net_param": {"avg_latency": 42.553, "max_latency": 49.027, "packet_loss_rate": 0.0}, "uav_param": {"mode": "RTL", "status": "STANDBY", "battery": "22.697", "attitude": {"pitch": "0.053708549588918686", "yaw": "-2.8915047645568848", "roll": "0.017469031736254692"}}, "gps_param": {"latitude": "44.9908823", "longitude": "10.4523965", "altitude": "16.37", "groundspeed": "0.042446352541446686", "velocity": {"vx": "-0.03", "vy": "0.01", "vz": "0.09"}, "head": "194", "hdop": "75", "vdop": "114", "satellites": "13", "fix_type": "4"}}
{"interface": "eth1", "timestamp": "2021-05-22 14:03:44.564868", "net_param": {"avg_latency": 48.391, "max_latency": 69.015, "packet_loss_rate": 0.0}, "uav_param": {"mode": "RTL", "status": "STANDBY", "battery": "24.901", "attitude": {"pitch": "0.015918469056487083", "yaw": "2.8536689281463623", "roll": "0.0007218215614557266"}}, "gps_param": {"latitude": "44.990861", "longitude": "10.4524013", "altitude": "13.86", "groundspeed": "0.02491510659456253", "velocity": {"vx": "-0.02", "vy": "0.0", "vz": "0.1"}, "head": "163", "hdop": "78", "vdop": "114", "satellites": "14", "fix_type": "4"}}
{"interface": "eth1", "timestamp": "2021-05-22 14:03:44.564868", "net_param": {"avg_latency": 48.391, "max_latency": 69.015, "packet_loss_rate": 0.0}, "uav_param": {"mode": "RTL", "status": "STANDBY", "battery": "24.901", "attitude": {"pitch": "0.015918469056487083", "yaw": "2.8536689281463623", "roll": "0.0007218215614557266"}}, "gps_param": {"latitude": "44.990861", "longitude": "10.4524013", "altitude": "13.86", "groundspeed": "0.02491510659456253", "velocity": {"vx": "-0.02", "vy": "0.0", "vz": "0.1"}, "head": "163", "hdop": "78", "vdop": "114", "satellites": "14", "fix_type": "4"}}
{"interface": "eth1", "timestamp": "2021-05-22 14:03:59.485870", "net_param": {"avg_latency": 47.551, "max_latency": 68.941, "packet_loss_rate": 0.0}, "uav_param": {"mode": "RTL", "status": "STANDBY", "battery": "24.887", "attitude": {"pitch": "0.015546523034572601", "yaw": "2.8585009574890137", "roll": "0.0006395643576979637"}}, "gps_param": {"latitude": "44.9908656", "longitude": "10.4523961", "altitude": "13.95", "groundspeed": "0.0027156623546034098", "velocity": {"vx": "0.0", "vy": "0.0", "vz": "0.09"}, "head": "163", "hdop": "71", "vdop": "107", "satellites": "15", "fix_type": "4"}}
{"interface": "eth1", "timestamp": "2021-05-22 14:03:59.485870", "net_param": {"avg_latency": 47.551, "max_latency": 68.941, "packet_loss_rate": 0.0}, "uav_param": {"mode": "RTL", "status": "STANDBY", "battery": "24.887", "attitude": {"pitch": "0.015546523034572601", "yaw": "2.8585009574890137", "roll": "0.0006395643576979637"}}, "gps_param": {"latitude": "44.9908656", "longitude": "10.4523961", "altitude": "13.95", "groundspeed": "0.0027156623546034098", "velocity": {"vx": "0.0", "vy": "0.0", "vz": "0.09"}, "head": "163", "hdop": "71", "vdop": "107", "satellites": "15", "fix_type": "4"}}
{"interface": "eth1", "timestamp": "2021-05-22 14:04:14.508242", "net_param": {"avg_latency": 48.9, "max_latency": 72.939, "packet_loss_rate": 0.0}, "uav_param": {"mode": "RTL", "status": "STANDBY", "battery": "24.893", "attitude": {"pitch": "0.014535684138536453", "yaw": "2.8616247177124023", "roll": "0.0003348514437675476"}}, "gps_param": {"latitude": "44.9908806", "longitude": "10.4523883", "altitude": "13.98", "groundspeed": "0.031077323481440544", "velocity": {"vx": "0.03", "vy": "0.0", "vz": "0.1"}, "head": "163", "hdop": "68", "vdop": "102", "satellites": "16", "fix_type": "4"}}
{"interface": "eth1", "timestamp": "2021-05-22 14:04:14.508242", "net_param": {"avg_latency": 48.9, "max_latency": 72.939, "packet_loss_rate": 0.0}, "uav_param": {"mode": "RTL", "status": "STANDBY", "battery": "24.893", "attitude": {"pitch": "0.014535684138536453", "yaw": "2.8616247177124023", "roll": "0.0003348514437675476"}}, "gps_param": {"latitude": "44.9908806", "longitude": "10.4523883", "altitude": "13.98", "groundspeed": "0.031077323481440544", "velocity": {"vx": "0.03", "vy": "0.0", "vz": "0.1"}, "head": "163", "hdop": "68", "vdop": "102", "satellites": "16", "fix_type": "4"}}
{"interface": "eth1", "timestamp": "2021-05-22 14:04:29.645549", "net_param": {"avg_latency": 44.983, "max_latency": 68.967, "packet_loss_rate": 0.0}, "uav_param": {"mode": "RTL", "status": "STANDBY", "battery": "24.899", "attitude": {"pitch": "0.015737295150756836", "yaw": "2.8632493019104004", "roll": "0.000516274943947792"}}, "gps_param": {"latitude": "44.9908831", "longitude": "10.4523859", "altitude": "14.01", "groundspeed": "0.03721311315894127", "velocity": {"vx": "-0.02", "vy": "0.02", "vz": "0.1"}, "head": "164", "hdop": "68", "vdop": "102", "satellites": "16", "fix_type": "4"}}
{"interface": "eth1", "timestamp": "2021-05-22 14:04:29.645549", "net_param": {"avg_latency": 44.983, "max_latency": 68.967, "packet_loss_rate": 0.0}, "uav_param": {"mode": "RTL", "status": "STANDBY", "battery": "24.899", "attitude": {"pitch": "0.015737295150756836", "yaw": "2.8632493019104004", "roll": "0.000516274943947792"}}, "gps_param": {"latitude": "44.9908831", "longitude": "10.4523859", "altitude": "14.01", "groundspeed": "0.03721311315894127", "velocity": {"vx": "-0.02", "vy": "0.02", "vz": "0.1"}, "head": "164", "hdop": "68", "vdop": "102", "satellites": "16", "fix_type": "4"}}
{"interface": "eth1", "timestamp": "2021-05-22 14:04:44.708029", "net_param": {"avg_latency": 52.854, "max_latency": 91.25, "packet_loss_rate": 0.0}, "uav_param": {"mode": "RTL", "status": "STANDBY", "battery": "24.897", "attitude": {"pitch": "0.015633925795555115", "yaw": "2.863429546356201", "roll": "0.0009063379839062691"}}, "gps_param": {"latitude": "44.9908835", "longitude": "10.4523823", "altitude": "14.1", "groundspeed": "0.0178690142929554", "velocity": {"vx": "-0.01", "vy": "0.0", "vz": "0.1"}, "head": "164", "hdop": "68", "vdop": "102", "satellites": "16", "fix_type": "4"}}
{"interface": "eth1", "timestamp": "2021-05-22 14:04:44.708029", "net_param": {"avg_latency": 52.854, "max_latency": 91.25, "packet_loss_rate": 0.0}, "uav_param": {"mode": "RTL", "status": "STANDBY", "battery": "24.897", "attitude": {"pitch": "0.015633925795555115", "yaw": "2.863429546356201", "roll": "0.0009063379839062691"}}, "gps_param": {"latitude": "44.9908835", "longitude": "10.4523823", "altitude": "14.1", "groundspeed": "0.0178690142929554", "velocity": {"vx": "-0.01", "vy": "0.0", "vz": "0.1"}, "head": "164", "hdop": "68", "vdop": "102", "satellites": "16", "fix_type": "4"}}
{"interface": "eth1", "timestamp": "2021-05-22 14:04:59.852378", "net_param": {"avg_latency": 48.532, "max_latency": 58.887, "packet_loss_rate": 0.0}, "uav_param": {"mode": "RTL", "status": "STANDBY", "battery": "24.886", "attitude": {"pitch": "0.017009276896715164", "yaw": "2.8633790016174316", "roll": "0.001058417372405529"}}, "gps_param": {"latitude": "44.9908781", "longitude": "10.452387", "altitude": "14.18", "groundspeed": "0.014799848198890686", "velocity": {"vx": "0.0", "vy": "0.01", "vz": "0.09"}, "head": "164", "hdop": "68", "vdop": "102", "satellites": "16", "fix_type": "4"}}
{"interface": "eth1", "timestamp": "2021-05-22 14:04:59.852378", "net_param": {"avg_latency": 48.532, "max_latency": 58.887, "packet_loss_rate": 0.0}, "uav_param": {"mode": "RTL", "status": "STANDBY", "battery": "24.886", "attitude": {"pitch": "0.017009276896715164", "yaw": "2.8633790016174316", "roll": "0.001058417372405529"}}, "gps_param": {"latitude": "44.9908781", "longitude": "10.452387", "altitude": "14.18", "groundspeed": "0.014799848198890686", "velocity": {"vx": "0.0", "vy": "0.01", "vz": "0.09"}, "head": "164", "hdop": "68", "vdop": "102", "satellites": "16", "fix_type": "4"}}
{"interface": "eth1", "timestamp": "2021-05-22 14:05:14.902830", "net_param": {"avg_latency": 49.666, "max_latency": 68.908, "packet_loss_rate": 0.0}, "uav_param": {"mode": "RTL", "status": "STANDBY", "battery": "24.887", "attitude": {"pitch": "0.016137976199388504", "yaw": "2.862739086151123", "roll": "0.0013042772188782692"}}, "gps_param": {"latitude": "44.9908754", "longitude": "10.4523935", "altitude": "14.15", "groundspeed": "0.03699672594666481", "velocity": {"vx": "-0.03", "vy": "0.01", "vz": "0.09"}, "head": "164", "hdop": "68", "vdop": "102", "satellites": "16", "fix_type": "4"}}
{"interface": "eth1", "timestamp": "2021-05-22 14:05:14.902830", "net_param": {"avg_latency": 49.666, "max_latency": 68.908, "packet_loss_rate": 0.0}, "uav_param": {"mode": "RTL", "status": "STANDBY", "battery": "24.887", "attitude": {"pitch": "0.016137976199388504", "yaw": "2.862739086151123", "roll": "0.0013042772188782692"}}, "gps_param": {"latitude": "44.9908754", "longitude": "10.4523935", "altitude": "14.15", "groundspeed": "0.03699672594666481", "velocity": {"vx": "-0.03", "vy": "0.01", "vz": "0.09"}, "head": "164", "hdop": "68", "vdop": "102", "satellites": "16", "fix_type": "4"}}
{"interface": "eth1", "timestamp": "2021-05-22 14:05:29.989654", "net_param": {"avg_latency": 49.634, "max_latency": 69.033, "packet_loss_rate": 0.0}, "uav_param": {"mode": "RTL", "status": "STANDBY", "battery": "24.886", "attitude": {"pitch": "0.016605619341135025", "yaw": "2.8624119758605957", "roll": "0.0006886599585413933"}}, "gps_param": {"latitude": "44.9908664", "longitude": "10.4523936", "altitude": "14.23", "groundspeed": "0.006037180777639151", "velocity": {"vx": "0.0", "vy": "0.0", "vz": "0.09"}, "head": "164", "hdop": "68", "vdop": "102", "satellites": "16", "fix_type": "4"}}
{"interface": "eth1", "timestamp": "2021-05-22 14:05:29.989654", "net_param": {"avg_latency": 49.634, "max_latency": 69.033, "packet_loss_rate": 0.0}, "uav_param": {"mode": "RTL", "status": "STANDBY", "battery": "24.886", "attitude": {"pitch": "0.016605619341135025", "yaw": "2.8624119758605957", "roll": "0.0006886599585413933"}}, "gps_param": {"latitude": "44.9908664", "longitude": "10.4523936", "altitude": "14.23", "groundspeed": "0.006037180777639151", "velocity": {"vx": "0.0", "vy": "0.0", "vz": "0.09"}, "head": "164", "hdop": "68", "vdop": "102", "satellites": "16", "fix_type": "4"}}
{"interface": "eth1", "timestamp": "2021-05-22 14:05:45.088305", "net_param": {"avg_latency": 48.323, "max_latency": 68.51, "packet_loss_rate": 0.0}, "uav_param": {"mode": "RTL", "status": "STANDBY", "battery": "24.876", "attitude": {"pitch": "0.015900744125247", "yaw": "2.862213611602783", "roll": "0.0003864020109176636"}}, "gps_param": {"latitude": "44.990865", "longitude": "10.4523904", "altitude": "14.21", "groundspeed": "0.024413302540779114", "velocity": {"vx": "-0.02", "vy": "0.0", "vz": "0.09"}, "head": "163", "hdop": "71", "vdop": "104", "satellites": "15", "fix_type": "4"}}
{"interface": "eth1", "timestamp": "2021-05-22 14:05:45.088305", "net_param": {"avg_latency": 48.323, "max_latency": 68.51, "packet_loss_rate": 0.0}, "uav_param": {"mode": "RTL", "status": "STANDBY", "battery": "24.876", "attitude": {"pitch": "0.015900744125247", "yaw": "2.862213611602783", "roll": "0.0003864020109176636"}}, "gps_param": {"latitude": "44.990865", "longitude": "10.4523904", "altitude": "14.21", "groundspeed": "0.024413302540779114", "velocity": {"vx": "-0.02", "vy": "0.0", "vz": "0.09"}, "head": "163", "hdop": "71", "vdop": "104", "satellites": "15", "fix_type": "4"}}
{"interface": "eth1", "timestamp": "2021-05-22 14:06:00.190360", "net_param": {"avg_latency": 53.394, "max_latency": 91.303, "packet_loss_rate": 0.0}, "uav_param": {"mode": "RTL", "status": "STANDBY", "battery": "24.873", "attitude": {"pitch": "0.01534133031964302", "yaw": "2.8619003295898438", "roll": "0.0009184908121824265"}}, "gps_param": {"latitude": "44.9908639", "longitude": "10.4523891", "altitude": "14.27", "groundspeed": "0.0346590019762516", "velocity": {"vx": "-0.03", "vy": "0.01", "vz": "0.08"}, "head": "163", "hdop": "63", "vdop": "90", "satellites": "17", "fix_type": "4"}}
{"interface": "eth1", "timestamp": "2021-05-22 14:06:00.190360", "net_param": {"avg_latency": 53.394, "max_latency": 91.303, "packet_loss_rate": 0.0}, "uav_param": {"mode": "RTL", "status": "STANDBY", "battery": "24.873", "attitude": {"pitch": "0.01534133031964302", "yaw": "2.8619003295898438", "roll": "0.0009184908121824265"}}, "gps_param": {"latitude": "44.9908639", "longitude": "10.4523891", "altitude": "14.27", "groundspeed": "0.0346590019762516", "velocity": {"vx": "-0.03", "vy": "0.01", "vz": "0.08"}, "head": "163", "hdop": "63", "vdop": "90", "satellites": "17", "fix_type": "4"}}
{"interface": "eth1", "timestamp": "2021-05-22 14:06:15.317874", "net_param": {"avg_latency": 49.322, "max_latency": 69.095, "packet_loss_rate": 0.0}, "uav_param": {"mode": "RTL", "status": "STANDBY", "battery": "24.871", "attitude": {"pitch": "0.015698324888944626", "yaw": "2.8622069358825684", "roll": "0.0010083867236971855"}}, "gps_param": {"latitude": "44.9908599", "longitude": "10.4523929", "altitude": "14.23", "groundspeed": "0.05413578450679779", "velocity": {"vx": "-0.04", "vy": "0.03", "vz": "0.1"}, "head": "163", "hdop": "68", "vdop": "102", "satellites": "16", "fix_type": "4"}}
{"interface": "eth1", "timestamp": "2021-05-22 14:06:15.317874", "net_param": {"avg_latency": 49.322, "max_latency": 69.095, "packet_loss_rate": 0.0}, "uav_param": {"mode": "RTL", "status": "STANDBY", "battery": "24.871", "attitude": {"pitch": "0.015698324888944626", "yaw": "2.8622069358825684", "roll": "0.0010083867236971855"}}, "gps_param": {"latitude": "44.9908599", "longitude": "10.4523929", "altitude": "14.23", "groundspeed": "0.05413578450679779", "velocity": {"vx": "-0.04", "vy": "0.03", "vz": "0.1"}, "head": "163", "hdop": "68", "vdop": "102", "satellites": "16", "fix_type": "4"}}
{"interface": "eth1", "timestamp": "2021-05-22 14:06:30.437753", "net_param": {"avg_latency": 51.062, "max_latency": 69.011, "packet_loss_rate": 0.0}, "uav_param": {"mode": "RTL", "status": "STANDBY", "battery": "24.868", "attitude": {"pitch": "0.016951866447925568", "yaw": "2.861757755279541", "roll": "0.0014125211164355278"}}, "gps_param": {"latitude": "44.990853", "longitude": "10.4523998", "altitude": "14.27", "groundspeed": "0.0312785878777504", "velocity": {"vx": "0.0", "vy": "0.01", "vz": "0.09"}, "head": "163", "hdop": "71", "vdop": "105", "satellites": "15", "fix_type": "4"}}
{"interface": "eth1", "timestamp": "2021-05-22 14:06:30.437753", "net_param": {"avg_latency": 51.062, "max_latency": 69.011, "packet_loss_rate": 0.0}, "uav_param": {"mode": "RTL", "status": "STANDBY", "battery": "24.868", "attitude": {"pitch": "0.016951866447925568", "yaw": "2.861757755279541", "roll": "0.0014125211164355278"}}, "gps_param": {"latitude": "44.990853", "longitude": "10.4523998", "altitude": "14.27", "groundspeed": "0.0312785878777504", "velocity": {"vx": "0.0", "vy": "0.01", "vz": "0.09"}, "head": "163", "hdop": "71", "vdop": "105", "satellites": "15", "fix_type": "4"}}
{"interface": "eth1", "timestamp": "2021-05-22 14:06:45.536504", "net_param": {"avg_latency": 47.553, "max_latency": 63.994, "packet_loss_rate": 0.0}, "uav_param": {"mode": "RTL", "status": "STANDBY", "battery": "24.871", "attitude": {"pitch": "0.015662096440792084", "yaw": "2.862030506134033", "roll": "0.0005852356553077698"}}, "gps_param": {"latitude": "44.9908512", "longitude": "10.4524015", "altitude": "14.31", "groundspeed": "0.038118429481983185", "velocity": {"vx": "0.0", "vy": "0.03", "vz": "0.09"}, "head": "163", "hdop": "71", "vdop": "105", "satellites": "15", "fix_type": "4"}}
{"interface": "eth1", "timestamp": "2021-05-22 14:06:45.536504", "net_param": {"avg_latency": 47.553, "max_latency": 63.994, "packet_loss_rate": 0.0}, "uav_param": {"mode": "RTL", "status": "STANDBY", "battery": "24.871", "attitude": {"pitch": "0.015662096440792084", "yaw": "2.862030506134033", "roll": "0.0005852356553077698"}}, "gps_param": {"latitude": "44.9908512", "longitude": "10.4524015", "altitude": "14.31", "groundspeed": "0.038118429481983185", "velocity": {"vx": "0.0", "vy": "0.03", "vz": "0.09"}, "head": "163", "hdop": "71", "vdop": "105", "satellites": "15", "fix_type": "4"}}
{"interface": "eth1", "timestamp": "2021-05-22 14:07:00.617666", "net_param": {"avg_latency": 47.546, "max_latency": 68.91, "packet_loss_rate": 0.0}, "uav_param": {"mode": "RTL", "status": "STANDBY", "battery": "24.875", "attitude": {"pitch": "0.015858016908168793", "yaw": "2.8617000579833984", "roll": "0.0012903427705168724"}}, "gps_param": {"latitude": "44.9908516", "longitude": "10.4524039", "altitude": "14.33", "groundspeed": "0.041499603539705276", "velocity": {"vx": "0.04", "vy": "0.0", "vz": "0.09"}, "head": "163", "hdop": "71", "vdop": "105", "satellites": "15", "fix_type": "4"}}
{"interface": "eth1", "timestamp": "2021-05-22 14:07:00.617666", "net_param": {"avg_latency": 47.546, "max_latency": 68.91, "packet_loss_rate": 0.0}, "uav_param": {"mode": "RTL", "status": "STANDBY", "battery": "24.875", "attitude": {"pitch": "0.015858016908168793", "yaw": "2.8617000579833984", "roll": "0.0012903427705168724"}}, "gps_param": {"latitude": "44.9908516", "longitude": "10.4524039", "altitude": "14.33", "groundspeed": "0.041499603539705276", "velocity": {"vx": "0.04", "vy": "0.0", "vz": "0.09"}, "head": "163", "hdop": "71", "vdop": "105", "satellites": "15", "fix_type": "4"}}
{"interface": "eth1", "timestamp": "2021-05-22 14:07:15.735862", "net_param": {"avg_latency": 53.027, "max_latency": 69.062, "packet_loss_rate": 0.0}, "uav_param": {"mode": "RTL", "status": "STANDBY", "battery": "24.873", "attitude": {"pitch": "0.014852581545710564", "yaw": "2.8612685203552246", "roll": "0.0014204718172550201"}}, "gps_param": {"latitude": "44.9908654", "longitude": "10.4524009", "altitude": "14.36", "groundspeed": "0.024125004187226295", "velocity": {"vx": "0.02", "vy": "-0.01", "vz": "0.09"}, "head": "163", "hdop": "71", "vdop": "105", "satellites": "15", "fix_type": "4"}}
{"interface": "eth1", "timestamp": "2021-05-22 14:07:15.735862", "net_param": {"avg_latency": 53.027, "max_latency": 69.062, "packet_loss_rate": 0.0}, "uav_param": {"mode": "RTL", "status": "STANDBY", "battery": "24.873", "attitude": {"pitch": "0.014852581545710564", "yaw": "2.8612685203552246", "roll": "0.0014204718172550201"}}, "gps_param": {"latitude": "44.9908654", "longitude": "10.4524009", "altitude": "14.36", "groundspeed": "0.024125004187226295", "velocity": {"vx": "0.02", "vy": "-0.01", "vz": "0.09"}, "head": "163", "hdop": "71", "vdop": "105", "satellites": "15", "fix_type": "4"}}
