{"interface": "eth1", "timestamp": "2021-05-26 16:47:37.685266", "net_param": {"externalIp": "151.44.67.12", "download": 1253764, "upload": 176068, "latency": 31.105, "jitter": 7.148}, "uav_param": {"mode": "STABILIZE", "status": "STANDBY", "battery": "0.071", "attitude": {"pitch": "-0.01683683693408966", "yaw": "3.0049173831939697", "roll": "0.0006278036162257195"}}, "gps_param": {"latitude": "44.9965053", "longitude": "10.4652782", "altitude": "5.17", "groundspeed": "0.014572112821042538", "velocity": {"vx": "-0.01", "vy": "0.0", "vz": "0.01"}, "head": "172", "hdop": "9999", "vdop": "9999", "satellites": "0", "fix_type": "1"}}
{"interface": "eth1", "timestamp": "2021-05-26 16:48:57.990946", "net_param": {"externalIp": "151.44.67.12", "download": 1410337, "upload": 187082, "latency": 23.893, "jitter": 9.029}, "uav_param": {"mode": "STABILIZE", "status": "STANDBY", "battery": "0.073", "attitude": {"pitch": "-0.016516517847776413", "yaw": "3.000361442565918", "roll": "0.0009647263213992119"}}, "gps_param": {"latitude": "44.9965053", "longitude": "10.4652782", "altitude": "5.4", "groundspeed": "0.016294673085212708", "velocity": {"vx": "0.0", "vy": "-0.01", "vz": "0.0"}, "head": "171", "hdop": "9999", "vdop": "9999", "satellites": "0", "fix_type": "1"}}
{"interface": "eth1", "timestamp": "2021-05-26 16:50:06.610181", "net_param": {"externalIp": "151.44.67.12", "download": 903344, "upload": 200554, "latency": 28.965, "jitter": 7.264}, "uav_param": {"mode": "STABILIZE", "status": "STANDBY", "battery": "0.071", "attitude": {"pitch": "-0.01683080941438675", "yaw": "3.001657485961914", "roll": "0.001079285517334938"}}, "gps_param": {"latitude": "44.9965053", "longitude": "10.4652782", "altitude": "5.52", "groundspeed": "0.020375998690724373", "velocity": {"vx": "-0.01", "vy": "-0.01", "vz": "0.0"}, "head": "171", "hdop": "9999", "vdop": "9999", "satellites": "0", "fix_type": "1"}}
{"interface": "eth1", "timestamp": "2021-05-26 16:51:05.295193", "net_param": {"externalIp": "151.44.67.12", "download": 1869150, "upload": 167674, "latency": 23.904, "jitter": 3.045}, "uav_param": {"mode": "STABILIZE", "status": "STANDBY", "battery": "0.071", "attitude": {"pitch": "-0.016283392906188965", "yaw": "3.0032825469970703", "roll": "0.0006549553945660591"}}, "gps_param": {"latitude": "44.9965053", "longitude": "10.4652782", "altitude": "5.59", "groundspeed": "0.011922077275812626", "velocity": {"vx": "0.0", "vy": "-0.01", "vz": "0.0"}, "head": "172", "hdop": "9999", "vdop": "9999", "satellites": "0", "fix_type": "1"}}
{"interface": "eth1", "timestamp": "2021-05-26 16:51:45.257961", "net_param": {"externalIp": "151.44.67.12", "download": 1578444, "upload": 183306, "latency": 29.915, "jitter": 2.005}, "uav_param": {"mode": "STABILIZE", "status": "STANDBY", "battery": "0.071", "attitude": {"pitch": "-0.016588564962148666", "yaw": "3.0053653717041016", "roll": "0.0006868969649076462"}}, "gps_param": {"latitude": "44.9965053", "longitude": "10.4652782", "altitude": "5.77", "groundspeed": "0.012393494136631489", "velocity": {"vx": "0.0", "vy": "-0.01", "vz": "0.0"}, "head": "172", "hdop": "9999", "vdop": "9999", "satellites": "0", "fix_type": "1"}}
{"interface": "eth1", "timestamp": "2021-05-26 17:45:31.165896", "net_param": {"externalIp": "151.82.100.207", "download": 1970504, "upload": 4770125, "latency": 19, "jitter": 3.922}, "uav_param": {"mode": "AUTO", "status": "ACTIVE", "battery": "23.397", "attitude": {"pitch": "-0.10881504416465759", "yaw": "3.1204605102539062", "roll": "-0.037861645221710205"}}, "gps_param": {"latitude": "45.0046043", "longitude": "10.4618324", "altitude": "76.4", "groundspeed": "4.970321178436279", "velocity": {"vx": "-4.95", "vy": "-0.02", "vz": "-0.21"}, "head": "178", "hdop": "69", "vdop": "102", "satellites": "14", "fix_type": "4"}}
{"interface": "eth1", "timestamp": "2021-05-26 17:46:24.919417", "net_param": {"externalIp": "151.82.100.207", "download": 2798887, "upload": 5026659, "latency": 29.869, "jitter": 2.279}, "uav_param": {"mode": "AUTO", "status": "ACTIVE", "battery": "23.076", "attitude": {"pitch": "-0.14096590876579285", "yaw": "0.0014881115639582276", "roll": "0.02952105551958084"}}, "gps_param": {"latitude": "45.0056731", "longitude": "10.4621527", "altitude": "76.63", "groundspeed": "5.007598400115967", "velocity": {"vx": "5.0", "vy": "-0.03", "vz": "-0.02"}, "head": "0", "hdop": "65", "vdop": "92", "satellites": "16", "fix_type": "4"}}
{"interface": "eth1", "timestamp": "2021-05-26 17:47:11.768255", "net_param": {"externalIp": "151.82.100.207", "download": 1810791, "upload": 5018807, "latency": 21.961, "jitter": 7.267}, "uav_param": {"mode": "AUTO", "status": "ACTIVE", "battery": "22.826", "attitude": {"pitch": "-0.11321651935577393", "yaw": "3.1120638847351074", "roll": "-0.03636857867240906"}}, "gps_param": {"latitude": "45.0056808", "longitude": "10.4624686", "altitude": "76.45", "groundspeed": "5.020654201507568", "velocity": {"vx": "-5.02", "vy": "0.04", "vz": "-0.17"}, "head": "178", "hdop": "65", "vdop": "91", "satellites": "16", "fix_type": "4"}}
{"interface": "eth1", "timestamp": "2021-05-26 17:48:05.755277", "net_param": {"externalIp": "151.82.100.207", "download": 2433770, "upload": 4807002, "latency": 25.922, "jitter": 6.412}, "uav_param": {"mode": "AUTO", "status": "ACTIVE", "battery": "22.643", "attitude": {"pitch": "-0.11592333018779755", "yaw": "-0.12097077816724777", "roll": "0.10104398429393768"}}, "gps_param": {"latitude": "45.0040997", "longitude": "10.4627815", "altitude": "76.54", "groundspeed": "3.2179267406463623", "velocity": {"vx": "3.21", "vy": "0.05", "vz": "-0.08"}, "head": "353", "hdop": "65", "vdop": "91", "satellites": "16", "fix_type": "4"}}
{"interface": "eth1", "timestamp": "2021-05-26 17:48:50.475605", "net_param": {"externalIp": "151.82.100.207", "download": 2475578, "upload": 4842143, "latency": 29.912, "jitter": 3.204}, "uav_param": {"mode": "AUTO", "status": "ACTIVE", "battery": "22.604", "attitude": {"pitch": "0.004255237523466349", "yaw": "0.02382493205368519", "roll": "0.03470058739185333"}}, "gps_param": {"latitude": "45.006453", "longitude": "10.4627883", "altitude": "76.69", "groundspeed": "4.462966442108154", "velocity": {"vx": "4.46", "vy": "-0.03", "vz": "0.04"}, "head": "1", "hdop": "69", "vdop": "95", "satellites": "15", "fix_type": "4"}}
{"interface": "eth1", "timestamp": "2021-05-26 17:49:35.347451", "net_param": {"externalIp": "151.82.100.207", "download": 1631185, "upload": 4924261, "latency": 34.889, "jitter": 17.289}, "uav_param": {"mode": "AUTO", "status": "ACTIVE", "battery": "22.379", "attitude": {"pitch": "-0.10975447297096252", "yaw": "-3.1047823429107666", "roll": "-0.04086548835039139"}}, "gps_param": {"latitude": "45.0050434", "longitude": "10.4631064", "altitude": "76.4", "groundspeed": "4.979831218719482", "velocity": {"vx": "-4.97", "vy": "0.01", "vz": "-0.2"}, "head": "182", "hdop": "69", "vdop": "101", "satellites": "14", "fix_type": "4"}}
{"interface": "eth1", "timestamp": "2021-05-26 17:50:28.186526", "net_param": {"externalIp": "151.82.100.207", "download": 2073701, "upload": 4669316, "latency": 24.927, "jitter": 7.044}, "uav_param": {"mode": "AUTO", "status": "ACTIVE", "battery": "22.298", "attitude": {"pitch": "-0.13169243931770325", "yaw": "0.044627394527196884", "roll": "0.02885282039642334"}}, "gps_param": {"latitude": "45.004275", "longitude": "10.463425", "altitude": "76.71", "groundspeed": "4.7939133644104", "velocity": {"vx": "4.79", "vy": "-0.01", "vz": "0.06"}, "head": "2", "hdop": "69", "vdop": "101", "satellites": "14", "fix_type": "4"}}
{"interface": "eth1", "timestamp": "2021-05-26 17:51:24.589160", "net_param": {"externalIp": "151.82.100.207", "download": 1279612, "upload": 809628, "latency": 46.748, "jitter": 5.07}, "uav_param": {"mode": "AUTO", "status": "ACTIVE", "battery": "22.106", "attitude": {"pitch": "-0.19316022098064423", "yaw": "1.8786542415618896", "roll": "-0.049299467355012894"}}, "gps_param": {"latitude": "45.0063904", "longitude": "10.4635134", "altitude": "76.75", "groundspeed": "3.2476494312286377", "velocity": {"vx": "-0.59", "vy": "3.19", "vz": "0.12"}, "head": "107", "hdop": "61", "vdop": "84", "satellites": "17", "fix_type": "4"}}
{"interface": "eth1", "timestamp": "2021-05-26 17:52:21.952574", "net_param": {"externalIp": "151.82.100.207", "download": 1240447, "upload": 2682087, "latency": 43.93, "jitter": 7.622}, "uav_param": {"mode": "AUTO", "status": "ACTIVE", "battery": "21.991", "attitude": {"pitch": "-0.07491964846849442", "yaw": "-3.1106116771698", "roll": "-0.012412918731570244"}}, "gps_param": {"latitude": "45.0041128", "longitude": "10.4637429", "altitude": "76.43", "groundspeed": "4.951408386230469", "velocity": {"vx": "-4.95", "vy": "0.08", "vz": "-0.19"}, "head": "181", "hdop": "61", "vdop": "83", "satellites": "17", "fix_type": "4"}}
{"interface": "eth1", "timestamp": "2021-05-26 17:52:57.411336", "net_param": {"externalIp": "151.82.100.207", "download": 1521204, "upload": 3599961, "latency": 21.707, "jitter": 4.96}, "uav_param": {"mode": "AUTO", "status": "ACTIVE", "battery": "21.875", "attitude": {"pitch": "-0.1337430328130722", "yaw": "-0.005143259186297655", "roll": "0.023663626983761787"}}, "gps_param": {"latitude": "45.0054519", "longitude": "10.4640595", "altitude": "76.68", "groundspeed": "4.9888787269592285", "velocity": {"vx": "4.98", "vy": "0.0", "vz": "0.03"}, "head": "359", "hdop": "65", "vdop": "87", "satellites": "16", "fix_type": "4"}}
{"interface": "eth1", "timestamp": "2021-05-26 17:53:56.584197", "net_param": {"externalIp": "151.82.100.207", "download": 3011407, "upload": 881441, "latency": 26.895, "jitter": 10.749}, "uav_param": {"mode": "AUTO", "status": "ACTIVE", "battery": "21.827", "attitude": {"pitch": "-0.0997280552983284", "yaw": "3.1392860412597656", "roll": "-0.007268069311976433"}}, "gps_param": {"latitude": "45.0059404", "longitude": "10.4643779", "altitude": "76.62", "groundspeed": "4.665164470672607", "velocity": {"vx": "-4.66", "vy": "0.0", "vz": "-0.03"}, "head": "179", "hdop": "65", "vdop": "91", "satellites": "15", "fix_type": "4"}}
{"interface": "eth1", "timestamp": "2021-05-26 17:55:23.130602", "net_param": {"externalIp": "151.82.100.207", "download": 1684213, "upload": 3554969, "latency": 25.926, "jitter": 138.233}, "uav_param": {"mode": "AUTO", "status": "ACTIVE", "battery": "21.635", "attitude": {"pitch": "-0.1276576817035675", "yaw": "-0.011303333565592766", "roll": "0.0056943451054394245"}}, "gps_param": {"latitude": "45.0049755", "longitude": "10.464697", "altitude": "76.67", "groundspeed": "5.023388862609863", "velocity": {"vx": "5.02", "vy": "-0.08", "vz": "0.07"}, "head": "359", "hdop": "66", "vdop": "92", "satellites": "16", "fix_type": "4"}}
{"interface": "eth1", "timestamp": "2021-05-26 17:56:17.118344", "net_param": {"externalIp": "151.82.100.207", "download": 2143912, "upload": 4963250, "latency": 22.918, "jitter": 6.906}, "uav_param": {"mode": "RTL", "status": "CRITICAL", "battery": "21.582", "attitude": {"pitch": "-0.029807068407535553", "yaw": "-0.017755988985300064", "roll": "-0.07049259543418884"}}, "gps_param": {"latitude": "45.0060954", "longitude": "10.4635321", "altitude": "76.7", "groundspeed": "4.95513391494751", "velocity": {"vx": "-0.43", "vy": "-4.93", "vz": "0.11"}, "head": "358", "hdop": "73", "vdop": "105", "satellites": "14", "fix_type": "4"}}
{"interface": "eth1", "timestamp": "2021-05-26 17:57:01.372849", "net_param": {"externalIp": "151.82.100.207", "download": 970832, "upload": 5093816, "latency": 21.981, "jitter": 10.642}, "uav_param": {"mode": "RTL", "status": "CRITICAL", "battery": "21.55", "attitude": {"pitch": "-0.040321704000234604", "yaw": "1.7856919765472412", "roll": "6.355345249176025e-05"}}, "gps_param": {"latitude": "45.0059338", "longitude": "10.4610065", "altitude": "65.5", "groundspeed": "0.025418294593691826", "velocity": {"vx": "0.0", "vy": "-0.02", "vz": "1.56"}, "head": "102", "hdop": "73", "vdop": "106", "satellites": "14", "fix_type": "4"}}
{"interface": "eth1", "timestamp": "2021-05-26 18:11:28.340948", "net_param": {"externalIp": "151.36.2.21", "download": 3225305, "upload": 2110366, "latency": 24.838, "jitter": 3.561}, "uav_param": {"mode": "POSHOLD", "status": "STANDBY", "battery": "25.042", "attitude": {"pitch": "-0.0015715358313173056", "yaw": "1.3700987100601196", "roll": "-0.007590696215629578"}}, "gps_param": {"latitude": "45.0059276", "longitude": "10.4610245", "altitude": "12.12", "groundspeed": "0.01297672651708126", "velocity": {"vx": "0.0", "vy": "0.0", "vz": "0.07"}, "head": "78", "hdop": "72", "vdop": "111", "satellites": "16", "fix_type": "3"}}
{"interface": "eth1", "timestamp": "2021-05-26 18:12:12.327890", "net_param": {"externalIp": "151.36.2.21", "download": 2581780, "upload": 1999941, "latency": 68.973, "jitter": 11.499}, "uav_param": {"mode": "POSHOLD", "status": "STANDBY", "battery": "25.025", "attitude": {"pitch": "-0.001021760981529951", "yaw": "1.3679587841033936", "roll": "-0.0077577512711286545"}}, "gps_param": {"latitude": "45.0059277", "longitude": "10.4610273", "altitude": "12.33", "groundspeed": "0.011640455573797226", "velocity": {"vx": "0.0", "vy": "0.0", "vz": "0.05"}, "head": "78", "hdop": "72", "vdop": "112", "satellites": "16", "fix_type": "3"}}
{"interface": "eth1", "timestamp": "2021-05-26 18:14:37.272712", "net_param": {"externalIp": "151.36.2.21", "download": 2499804, "upload": 2116277, "latency": 49.657, "jitter": 14.963}, "uav_param": {"mode": "AUTO", "status": "ACTIVE", "battery": "23.798", "attitude": {"pitch": "-0.07311110943555832", "yaw": "0.14404296875", "roll": "0.015724265947937965"}}, "gps_param": {"latitude": "45.0071817", "longitude": "10.4619669", "altitude": "72.17", "groundspeed": "4.918774127960205", "velocity": {"vx": "4.87", "vy": "0.66", "vz": "0.0"}, "head": "8", "hdop": "64", "vdop": "94", "satellites": "17", "fix_type": "3"}}
{"interface": "eth1", "timestamp": "2021-05-26 18:16:48.028957", "net_param": {"externalIp": "151.36.2.21", "download": 582660, "upload": 2184047, "latency": 31.972, "jitter": 10.922}, "uav_param": {"mode": "AUTO", "status": "ACTIVE", "battery": "23.116", "attitude": {"pitch": "-0.15464691817760468", "yaw": "-3.0063960552215576", "roll": "-0.007345899939537048"}}, "gps_param": {"latitude": "45.0087119", "longitude": "10.4625911", "altitude": "72.03", "groundspeed": "4.964354991912842", "velocity": {"vx": "-4.92", "vy": "-0.63", "vz": "-0.13"}, "head": "187", "hdop": "64", "vdop": "94", "satellites": "17", "fix_type": "4"}}
{"interface": "eth1", "timestamp": "2021-05-26 18:17:35.537221", "net_param": {"externalIp": "151.36.2.21", "download": 801480, "upload": 2192909, "latency": 26.034, "jitter": 5.898}, "uav_param": {"mode": "AUTO", "status": "ACTIVE", "battery": "22.897", "attitude": {"pitch": "-0.007029552944004536", "yaw": "-3.1164400577545166", "roll": "-0.04113492742180824"}}, "gps_param": {"latitude": "45.0065232", "longitude": "10.4621579", "altitude": "71.93", "groundspeed": "3.1668477058410645", "velocity": {"vx": "-3.16", "vy": "-0.07", "vz": "-0.22"}, "head": "181", "hdop": "64", "vdop": "94", "satellites": "17", "fix_type": "4"}}
{"interface": "eth1", "timestamp": "2021-05-26 18:18:37.350459", "net_param": {"externalIp": "151.36.2.21", "download": 500989, "upload": 2130407, "latency": 24.891, "jitter": 4.559}, "uav_param": {"mode": "AUTO", "status": "ACTIVE", "battery": "22.739", "attitude": {"pitch": "-0.0822443962097168", "yaw": "0.17275337874889374", "roll": "0.007266131229698658"}}, "gps_param": {"latitude": "45.0081258", "longitude": "10.4627956", "altitude": "71.98", "groundspeed": "5.008569240570068", "velocity": {"vx": "4.95", "vy": "0.72", "vz": "-0.19"}, "head": "9", "hdop": "72", "vdop": "114", "satellites": "16", "fix_type": "4"}}
{"interface": "eth1", "timestamp": "2021-05-26 18:20:13.241994", "net_param": {"externalIp": "151.36.2.21", "download": 743444, "upload": 2171415, "latency": 28.922, "jitter": 2.513}, "uav_param": {"mode": "AUTO", "status": "ACTIVE", "battery": "22.462", "attitude": {"pitch": "-0.1297694742679596", "yaw": "-3.010730504989624", "roll": "-0.004262832924723625"}}, "gps_param": {"latitude": "45.0102813", "longitude": "10.463546", "altitude": "72.04", "groundspeed": "5.16472864151001", "velocity": {"vx": "-5.1", "vy": "-0.75", "vz": "-0.16"}, "head": "187", "hdop": "64", "vdop": "93", "satellites": "17", "fix_type": "4"}}
{"interface": "eth1", "timestamp": "2021-05-26 18:20:53.163424", "net_param": {"externalIp": "151.36.2.21", "download": 915989, "upload": 2284720, "latency": 26.922, "jitter": 8.925}, "uav_param": {"mode": "AUTO", "status": "ACTIVE", "battery": "22.224", "attitude": {"pitch": "-0.13742956519126892", "yaw": "-2.999183177947998", "roll": "0.0039042802527546883"}}, "gps_param": {"latitude": "45.0078518", "longitude": "10.4630642", "altitude": "72.13", "groundspeed": "4.984764575958252", "velocity": {"vx": "-4.92", "vy": "-0.76", "vz": "-0.06"}, "head": "188", "hdop": "72", "vdop": "115", "satellites": "16", "fix_type": "4"}}
{"interface": "eth1", "timestamp": "2021-05-26 18:22:13.464113", "net_param": {"externalIp": "151.36.2.21", "download": 728012, "upload": 2250285, "latency": 27.83, "jitter": 5.776}, "uav_param": {"mode": "AUTO", "status": "ACTIVE", "battery": "22.034", "attitude": {"pitch": "-0.10169529169797897", "yaw": "0.1380579024553299", "roll": "-0.013306306675076485"}}, "gps_param": {"latitude": "45.0079974", "longitude": "10.4634137", "altitude": "72.14", "groundspeed": "4.985520362854004", "velocity": {"vx": "4.93", "vy": "0.68", "vz": "-0.03"}, "head": "7", "hdop": "65", "vdop": "93", "satellites": "17", "fix_type": "4"}}
{"interface": "eth1", "timestamp": "2021-05-26 18:23:30.765297", "net_param": {"externalIp": "151.36.2.21", "download": 649130, "upload": 2409026, "latency": 28.071, "jitter": 2.384}, "uav_param": {"mode": "AUTO", "status": "ACTIVE", "battery": "21.899", "attitude": {"pitch": "-0.12327761203050613", "yaw": "-3.0172348022460938", "roll": "0.0054266368970274925"}}, "gps_param": {"latitude": "45.0107925", "longitude": "10.4642872", "altitude": "72.09", "groundspeed": "4.44611120223999", "velocity": {"vx": "-4.4", "vy": "-0.58", "vz": "-0.09"}, "head": "187", "hdop": "65", "vdop": "93", "satellites": "17", "fix_type": "4"}}
{"interface": "eth1", "timestamp": "2021-05-26 18:38:12.917891", "net_param": {"externalIp": "151.68.21.57", "download": 4031322, "upload": 1507243, "latency": 27.909, "jitter": 15.111}, "uav_param": {"mode": "AUTO", "status": "STANDBY", "battery": "24.989", "attitude": {"pitch": "0.009743907488882542", "yaw": "1.352506160736084", "roll": "-0.0031597642228007317"}}, "gps_param": {"latitude": "45.0059312", "longitude": "10.461035", "altitude": "9.97", "groundspeed": "0.025937039405107498", "velocity": {"vx": "-0.02", "vy": "0.0", "vz": "0.08"}, "head": "77", "hdop": "73", "vdop": "111", "satellites": "16", "fix_type": "4"}}
{"interface": "eth1", "timestamp": "2021-05-26 18:39:12.004844", "net_param": {"externalIp": "151.68.21.57", "download": 1217710, "upload": 2113598, "latency": 66.901, "jitter": 6.78}, "uav_param": {"mode": "AUTO", "status": "ACTIVE", "battery": "24.072", "attitude": {"pitch": "-0.15677838027477264", "yaw": "-2.5425968170166016", "roll": "-0.03532940521836281"}}, "gps_param": {"latitude": "45.0058283", "longitude": "10.4609171", "altitude": "55.08", "groundspeed": "4.298797607421875", "velocity": {"vx": "-3.69", "vy": "-2.19", "vz": "0.06"}, "head": "214", "hdop": "73", "vdop": "111", "satellites": "16", "fix_type": "4"}}
{"interface": "eth1", "timestamp": "2021-05-26 18:39:59.163360", "net_param": {"externalIp": "151.68.21.57", "download": 970456, "upload": 2458378, "latency": 27.851, "jitter": 4.772}, "uav_param": {"mode": "AUTO", "status": "ACTIVE", "battery": "23.785", "attitude": {"pitch": "-0.11575020849704742", "yaw": "-1.267472267150879", "roll": "-0.04893217235803604"}}, "gps_param": {"latitude": "45.0055902", "longitude": "10.4578809", "altitude": "54.83", "groundspeed": "4.920152187347412", "velocity": {"vx": "1.48", "vy": "-4.68", "vz": "-0.18"}, "head": "287", "hdop": "73", "vdop": "110", "satellites": "16", "fix_type": "4"}}
{"interface": "eth1", "timestamp": "2021-05-26 18:40:44.680684", "net_param": {"externalIp": "151.68.21.57", "download": 1440956, "upload": 2425696, "latency": 30.122, "jitter": 5.497}, "uav_param": {"mode": "AUTO", "status": "ACTIVE", "battery": "23.596", "attitude": {"pitch": "-0.13125921785831451", "yaw": "-1.2703136205673218", "roll": "-0.04503273218870163"}}, "gps_param": {"latitude": "45.0062633", "longitude": "10.4550647", "altitude": "54.69", "groundspeed": "4.946380138397217", "velocity": {"vx": "1.55", "vy": "-4.69", "vz": "-0.31"}, "head": "287", "hdop": "74", "vdop": "110", "satellites": "15", "fix_type": "4"}}
{"interface": "eth1", "timestamp": "2021-05-26 18:41:35.386976", "net_param": {"externalIp": "151.68.21.57", "download": 753740, "upload": 2229578, "latency": 28.968, "jitter": 3.717}, "uav_param": {"mode": "AUTO", "status": "ACTIVE", "battery": "23.419", "attitude": {"pitch": "-0.1069399043917656", "yaw": "1.8753721714019775", "roll": "0.021949414163827896"}}, "gps_param": {"latitude": "45.0062875", "longitude": "10.4552309", "altitude": "54.97", "groundspeed": "4.9517292976379395", "velocity": {"vx": "-1.38", "vy": "4.75", "vz": "-0.06"}, "head": "107", "hdop": "72", "vdop": "109", "satellites": "16", "fix_type": "4"}}
{"interface": "eth1", "timestamp": "2021-05-26 18:42:17.844184", "net_param": {"externalIp": "151.68.21.57", "download": 552289, "upload": 2366182, "latency": 28.937, "jitter": 5.676}, "uav_param": {"mode": "AUTO", "status": "ACTIVE", "battery": "23.087", "attitude": {"pitch": "-0.126389279961586", "yaw": "1.8366788625717163", "roll": "0.03858034312725067"}}, "gps_param": {"latitude": "45.0057", "longitude": "10.4583226", "altitude": "55.0", "groundspeed": "4.995596408843994", "velocity": {"vx": "-1.32", "vy": "4.81", "vz": "-0.02"}, "head": "105", "hdop": "74", "vdop": "109", "satellites": "15", "fix_type": "4"}}
{"interface": "eth1", "timestamp": "2021-05-26 18:43:44.609054", "net_param": {"externalIp": "151.68.21.57", "download": 1087064, "upload": 2447675, "latency": 27.986, "jitter": 3.968}, "uav_param": {"mode": "AUTO", "status": "ACTIVE", "battery": "22.766", "attitude": {"pitch": "-0.10531388968229294", "yaw": "-1.325203537940979", "roll": "-0.041805166751146317"}}, "gps_param": {"latitude": "45.0060397", "longitude": "10.4577615", "altitude": "54.91", "groundspeed": "5.0028076171875", "velocity": {"vx": "1.28", "vy": "-4.81", "vz": "-0.11"}, "head": "284", "hdop": "74", "vdop": "108", "satellites": "15", "fix_type": "4"}}
{"interface": "eth1", "timestamp": "2021-05-26 18:44:32.410115", "net_param": {"externalIp": "151.68.21.57", "download": 1410632, "upload": 2245295, "latency": 30.767, "jitter": 6.468}, "uav_param": {"mode": "AUTO", "status": "ACTIVE", "battery": "22.598", "attitude": {"pitch": "-0.12076239287853241", "yaw": "-1.3055894374847412", "roll": "-0.019098587334156036"}}, "gps_param": {"latitude": "45.0065767", "longitude": "10.454921", "altitude": "54.93", "groundspeed": "4.989398002624512", "velocity": {"vx": "1.27", "vy": "-4.82", "vz": "-0.07"}, "head": "285", "hdop": "72", "vdop": "107", "satellites": "16", "fix_type": "4"}}
{"interface": "eth1", "timestamp": "2021-05-26 18:47:10.623596", "net_param": {"externalIp": "151.68.21.57", "download": 1078605, "upload": 2470748, "latency": 28.93, "jitter": 2.762}, "uav_param": {"mode": "AUTO", "status": "ACTIVE", "battery": "22.096", "attitude": {"pitch": "-0.11491146683692932", "yaw": "-1.2963201999664307", "roll": "-0.042094968259334564"}}, "gps_param": {"latitude": "45.006292", "longitude": "10.4588805", "altitude": "54.76", "groundspeed": "4.987630844116211", "velocity": {"vx": "1.25", "vy": "-4.82", "vz": "-0.24"}, "head": "285", "hdop": "65", "vdop": "87", "satellites": "17", "fix_type": "4"}}
{"interface": "eth1", "timestamp": "2021-05-26 18:51:04.726220", "net_param": {"externalIp": "151.68.21.57", "download": 685985, "upload": 2372804, "latency": 26.619, "jitter": 4.539}, "uav_param": {"mode": "AUTO", "status": "ACTIVE", "battery": "21.977", "attitude": {"pitch": "-0.1158175989985466", "yaw": "-1.3114200830459595", "roll": "-0.052645545452833176"}}, "gps_param": {"latitude": "45.0069973", "longitude": "10.4551575", "altitude": "54.88", "groundspeed": "4.968240261077881", "velocity": {"vx": "1.28", "vy": "-4.79", "vz": "-0.11"}, "head": "284", "hdop": "66", "vdop": "87", "satellites": "16", "fix_type": "4"}}
{"interface": "eth1", "timestamp": "2021-05-26 18:52:52.362820", "net_param": {"externalIp": "151.68.21.57", "download": 3084397, "upload": 1658496, "latency": 28.141, "jitter": 4.285}, "uav_param": {"mode": "AUTO", "status": "ACTIVE", "battery": "21.977", "attitude": {"pitch": "-0.1158175989985466", "yaw": "-1.3114200830459595", "roll": "-0.052645545452833176"}}, "gps_param": {"latitude": "45.0069973", "longitude": "10.4551575", "altitude": "54.88", "groundspeed": "4.968240261077881", "velocity": {"vx": "1.28", "vy": "-4.79", "vz": "-0.11"}, "head": "284", "hdop": "66", "vdop": "87", "satellites": "16", "fix_type": "4"}}
{"interface": "eth1", "timestamp": "2021-05-26 18:53:29.346457", "net_param": {"externalIp": "151.68.21.57", "download": 3765404, "upload": 1756782, "latency": 34.885, "jitter": 7.289}, "uav_param": {"mode": "AUTO", "status": "ACTIVE", "battery": "21.977", "attitude": {"pitch": "-0.1158175989985466", "yaw": "-1.3114200830459595", "roll": "-0.052645545452833176"}}, "gps_param": {"latitude": "45.0069973", "longitude": "10.4551575", "altitude": "54.88", "groundspeed": "4.968240261077881", "velocity": {"vx": "1.28", "vy": "-4.79", "vz": "-0.11"}, "head": "284", "hdop": "66", "vdop": "87", "satellites": "16", "fix_type": "4"}}
{"interface": "eth1", "timestamp": "2021-05-27 18:55:27.980527", "net_param": {"externalIp": "151.18.127.67", "download": 3195335, "upload": 4680706, "latency": 22.955, "jitter": 4.369}, "uav_param": {"mode": "POSHOLD", "status": "STANDBY", "battery": "24.891", "attitude": {"pitch": "-0.011058473959565163", "yaw": "1.8363832235336304", "roll": "-0.03022344410419464"}}, "gps_param": {"latitude": "44.990724", "longitude": "10.4526613", "altitude": "13.64", "groundspeed": "0.02206321433186531", "velocity": {"vx": "-0.02", "vy": "0.0", "vz": "0.09"}, "head": "105", "hdop": "69", "vdop": "90", "satellites": "16", "fix_type": "4"}}
{"interface": "eth1", "timestamp": "2021-05-27 18:56:22.236081", "net_param": {"externalIp": "151.18.127.67", "download": 2899497, "upload": 4920804, "latency": 24.039, "jitter": 6.919}, "uav_param": {"mode": "AUTO", "status": "ACTIVE", "battery": "23.964", "attitude": {"pitch": "-0.0990331768989563", "yaw": "1.5998903512954712", "roll": "-0.03643305227160454"}}, "gps_param": {"latitude": "44.990733", "longitude": "10.4530407", "altitude": "53.49", "groundspeed": "4.589944839477539", "velocity": {"vx": "0.02", "vy": "4.58", "vz": "-0.13"}, "head": "91", "hdop": "69", "vdop": "90", "satellites": "16", "fix_type": "4"}}
{"interface": "eth1", "timestamp": "2021-05-27 18:57:11.256359", "net_param": {"externalIp": "151.18.127.67", "download": 2677861, "upload": 5044170, "latency": 29.901, "jitter": 1.948}, "uav_param": {"mode": "AUTO", "status": "ACTIVE", "battery": "23.808", "attitude": {"pitch": "-0.13211730122566223", "yaw": "-1.6450220346450806", "roll": "0.032199859619140625"}}, "gps_param": {"latitude": "44.9906149", "longitude": "10.4530769", "altitude": "53.59", "groundspeed": "4.98073148727417", "velocity": {"vx": "-0.55", "vy": "-4.95", "vz": "-0.04"}, "head": "265", "hdop": "66", "vdop": "83", "satellites": "18", "fix_type": "4"}}
{"interface": "eth1", "timestamp": "2021-05-27 18:58:00.102156", "net_param": {"externalIp": "151.18.127.67", "download": 3802609, "upload": 4894898, "latency": 44.837, "jitter": 6.294}, "uav_param": {"mode": "AUTO", "status": "ACTIVE", "battery": "23.555", "attitude": {"pitch": "-0.10713360458612442", "yaw": "1.4734488725662231", "roll": "-0.01142020896077156"}}, "gps_param": {"latitude": "44.9902889", "longitude": "10.4517355", "altitude": "53.57", "groundspeed": "4.813108921051025", "velocity": {"vx": "0.54", "vy": "4.78", "vz": "-0.05"}, "head": "84", "hdop": "65", "vdop": "81", "satellites": "19", "fix_type": "4"}}
{"interface": "eth1", "timestamp": "2021-05-27 18:58:48.521734", "net_param": {"externalIp": "151.18.127.67", "download": 3319862, "upload": 5010724, "latency": 29.031, "jitter": 10.736}, "uav_param": {"mode": "AUTO", "status": "ACTIVE", "battery": "23.346", "attitude": {"pitch": "-0.10242187976837158", "yaw": "3.0799813270568848", "roll": "0.02714216336607933"}}, "gps_param": {"latitude": "44.9903911", "longitude": "10.4545954", "altitude": "53.5", "groundspeed": "3.830843925476074", "velocity": {"vx": "-3.82", "vy": "0.09", "vz": "-0.1"}, "head": "176", "hdop": "65", "vdop": "81", "satellites": "19", "fix_type": "4"}}
{"interface": "eth1", "timestamp": "2021-05-27 18:59:33.643382", "net_param": {"externalIp": "151.18.127.67", "download": 2529211, "upload": 4946728, "latency": 22.888, "jitter": 7.276}, "uav_param": {"mode": "AUTO", "status": "ACTIVE", "battery": "23.11", "attitude": {"pitch": "-0.10435550659894943", "yaw": "-1.6914373636245728", "roll": "0.008015995845198631"}}, "gps_param": {"latitude": "44.990078", "longitude": "10.4519267", "altitude": "53.52", "groundspeed": "4.9907355308532715", "velocity": {"vx": "-0.57", "vy": "-4.95", "vz": "-0.1"}, "head": "263", "hdop": "68", "vdop": "85", "satellites": "17", "fix_type": "4"}}
{"interface": "eth1", "timestamp": "2021-05-27 19:00:14.017662", "net_param": {"externalIp": "151.18.127.67", "download": 2926248, "upload": 4868688, "latency": 39.017, "jitter": 7.05}, "uav_param": {"mode": "AUTO", "status": "ACTIVE", "battery": "22.888", "attitude": {"pitch": "-0.10764860361814499", "yaw": "1.4779958724975586", "roll": "-0.0069435965269804"}}, "gps_param": {"latitude": "44.9899058", "longitude": "10.4526515", "altitude": "53.58", "groundspeed": "5.047791004180908", "velocity": {"vx": "0.48", "vy": "5.02", "vz": "-0.03"}, "head": "84", "hdop": "65", "vdop": "81", "satellites": "19", "fix_type": "4"}}
{"interface": "eth1", "timestamp": "2021-05-27 19:00:56.152390", "net_param": {"externalIp": "151.18.127.67", "download": 2372722, "upload": 4814715, "latency": 23.027, "jitter": 13.233}, "uav_param": {"mode": "AUTO", "status": "ACTIVE", "battery": "22.724", "attitude": {"pitch": "-0.18443641066551208", "yaw": "-1.5485433340072632", "roll": "0.002212640829384327"}}, "gps_param": {"latitude": "44.9898267", "longitude": "10.4545975", "altitude": "53.53", "groundspeed": "2.723926305770874", "velocity": {"vx": "-0.5", "vy": "-2.67", "vz": "-0.09"}, "head": "271", "hdop": "66", "vdop": "82", "satellites": "18", "fix_type": "4"}}
{"interface": "eth1", "timestamp": "2021-05-27 19:01:41.126097", "net_param": {"externalIp": "151.18.127.67", "download": 3006296, "upload": 4670961, "latency": 20.699, "jitter": 5.387}, "uav_param": {"mode": "AUTO", "status": "ACTIVE", "battery": "22.677", "attitude": {"pitch": "-0.10912288725376129", "yaw": "-1.6684765815734863", "roll": "0.026641540229320526"}}, "gps_param": {"latitude": "44.989635", "longitude": "10.4520455", "altitude": "53.62", "groundspeed": "4.970763683319092", "velocity": {"vx": "-0.53", "vy": "-4.94", "vz": "-0.03"}, "head": "264", "hdop": "68", "vdop": "85", "satellites": "17", "fix_type": "4"}}
{"interface": "eth1", "timestamp": "2021-05-27 19:02:26.999757", "net_param": {"externalIp": "151.18.127.67", "download": 3101974, "upload": 5081969, "latency": 23.13, "jitter": 11.832}, "uav_param": {"mode": "AUTO", "status": "ACTIVE", "battery": "22.506", "attitude": {"pitch": "-0.1133928894996643", "yaw": "1.447087287902832", "roll": "-0.03889303281903267"}}, "gps_param": {"latitude": "44.9894433", "longitude": "10.4525288", "altitude": "53.45", "groundspeed": "4.970346450805664", "velocity": {"vx": "0.55", "vy": "4.93", "vz": "-0.18"}, "head": "82", "hdop": "65", "vdop": "81", "satellites": "19", "fix_type": "4"}}
{"interface": "eth1", "timestamp": "2021-05-27 19:03:13.630743", "net_param": {"externalIp": "151.18.127.67", "download": 2375665, "upload": 4559664, "latency": 19.881, "jitter": 11.14}, "uav_param": {"mode": "AUTO", "status": "ACTIVE", "battery": "22.364", "attitude": {"pitch": "-0.13226571679115295", "yaw": "-1.6552314758300781", "roll": "0.00923016294836998"}}, "gps_param": {"latitude": "44.9893666", "longitude": "10.4545091", "altitude": "53.77", "groundspeed": "4.16245698928833", "velocity": {"vx": "-0.41", "vy": "-4.14", "vz": "0.13"}, "head": "265", "hdop": "66", "vdop": "82", "satellites": "18", "fix_type": "4"}}
{"interface": "eth1", "timestamp": "2021-05-27 19:04:02.023316", "net_param": {"externalIp": "151.18.127.67", "download": 3854071, "upload": 4909823, "latency": 21.944, "jitter": 8.462}, "uav_param": {"mode": "AUTO", "status": "ACTIVE", "battery": "22.288", "attitude": {"pitch": "-0.1171766072511673", "yaw": "-1.6869088411331177", "roll": "0.02897796593606472"}}, "gps_param": {"latitude": "44.9891497", "longitude": "10.4516068", "altitude": "53.64", "groundspeed": "4.95990514755249", "velocity": {"vx": "-0.61", "vy": "-4.92", "vz": "0.0"}, "head": "263", "hdop": "66", "vdop": "83", "satellites": "18", "fix_type": "4"}}
{"interface": "eth1", "timestamp": "2021-05-27 19:04:46.349738", "net_param": {"externalIp": "151.18.127.67", "download": 2923293, "upload": 4958296, "latency": 22.707, "jitter": 2.852}, "uav_param": {"mode": "AUTO", "status": "ACTIVE", "battery": "22.114", "attitude": {"pitch": "-0.1181284561753273", "yaw": "1.4732177257537842", "roll": "-0.046252477914094925"}}, "gps_param": {"latitude": "44.9890383", "longitude": "10.4531561", "altitude": "53.54", "groundspeed": "5.0130181312561035", "velocity": {"vx": "0.45", "vy": "4.99", "vz": "-0.06"}, "head": "84", "hdop": "66", "vdop": "81", "satellites": "18", "fix_type": "4"}}
{"interface": "eth1", "timestamp": "2021-05-27 19:07:05.299673", "net_param": {"externalIp": "151.18.127.67", "download": 2903060, "upload": 5118560, "latency": 21.669, "jitter": 3.718}, "uav_param": {"mode": "AUTO", "status": "ACTIVE", "battery": "22.043", "attitude": {"pitch": "-0.1368587613105774", "yaw": "-1.6402275562286377", "roll": "0.02266116440296173"}}, "gps_param": {"latitude": "44.9889129", "longitude": "10.454484", "altitude": "53.77", "groundspeed": "4.487376689910889", "velocity": {"vx": "-0.49", "vy": "-4.45", "vz": "0.17"}, "head": "266", "hdop": "67", "vdop": "84", "satellites": "17", "fix_type": "4"}}
{"interface": "eth1", "timestamp": "2021-05-27 19:07:59.621443", "net_param": {"externalIp": "151.18.127.67", "download": 2792019, "upload": 4965870, "latency": 29.885, "jitter": 0.276}, "uav_param": {"mode": "AUTO", "status": "ACTIVE", "battery": "22.043", "attitude": {"pitch": "-0.1368587613105774", "yaw": "-1.6402275562286377", "roll": "0.02266116440296173"}}, "gps_param": {"latitude": "44.9889129", "longitude": "10.454484", "altitude": "53.77", "groundspeed": "4.487376689910889", "velocity": {"vx": "-0.49", "vy": "-4.45", "vz": "0.17"}, "head": "266", "hdop": "67", "vdop": "84", "satellites": "17", "fix_type": "4"}}
{"interface": "eth1", "timestamp": "2021-05-27 19:08:48.469275", "net_param": {"externalIp": "151.18.127.67", "download": 1346813, "upload": 4213859, "latency": 25.907, "jitter": 2.23}, "uav_param": {"mode": "AUTO", "status": "ACTIVE", "battery": "22.043", "attitude": {"pitch": "-0.1368587613105774", "yaw": "-1.6402275562286377", "roll": "0.02266116440296173"}}, "gps_param": {"latitude": "44.9889129", "longitude": "10.454484", "altitude": "53.77", "groundspeed": "4.487376689910889", "velocity": {"vx": "-0.49", "vy": "-4.45", "vz": "0.17"}, "head": "266", "hdop": "67", "vdop": "84", "satellites": "17", "fix_type": "4"}}
{"interface": "eth1", "timestamp": "2021-05-27 19:15:34.465433", "net_param": {"externalIp": "151.82.49.111", "download": 3144325, "upload": 3622883, "latency": 30.948, "jitter": 2.31}, "uav_param": {"mode": "RTL", "status": "STANDBY", "battery": "24.927", "attitude": {"pitch": "-2.958066761493683e-05", "yaw": "1.888678789138794", "roll": "-0.03210524842143059"}}, "gps_param": {"latitude": "44.9907513", "longitude": "10.4526206", "altitude": "-3.2", "groundspeed": "0.024682631716132164", "velocity": {"vx": "0.0", "vy": "-0.02", "vz": "0.05"}, "head": "108", "hdop": "69", "vdop": "86", "satellites": "16", "fix_type": "4"}}
{"interface": "eth1", "timestamp": "2021-05-27 19:16:26.592473", "net_param": {"externalIp": "151.82.49.111", "download": 3263694, "upload": 3596860, "latency": 30.971, "jitter": 4.533}, "uav_param": {"mode": "AUTO", "status": "ACTIVE", "battery": "24.023", "attitude": {"pitch": "-0.18017606437206268", "yaw": "0.7347253561019897", "roll": "0.03516281396150589"}}, "gps_param": {"latitude": "44.990771", "longitude": "10.4526775", "altitude": "21.9", "groundspeed": "2.6203107833862305", "velocity": {"vx": "1.48", "vy": "2.15", "vz": "0.08"}, "head": "42", "hdop": "69", "vdop": "86", "satellites": "16", "fix_type": "4"}}
{"interface": "eth1", "timestamp": "2021-05-27 19:17:22.389602", "net_param": {"externalIp": "151.82.49.111", "download": 4093526, "upload": 3984869, "latency": 29.924, "jitter": 7.557}, "uav_param": {"mode": "AUTO", "status": "ACTIVE", "battery": "23.829", "attitude": {"pitch": "-0.12224636971950531", "yaw": "-1.6297836303710938", "roll": "0.037061192095279694"}}, "gps_param": {"latitude": "44.9911656", "longitude": "10.4544675", "altitude": "21.93", "groundspeed": "4.604527473449707", "velocity": {"vx": "-0.58", "vy": "-4.56", "vz": "0.11"}, "head": "266", "hdop": "66", "vdop": "81", "satellites": "17", "fix_type": "4"}}
{"interface": "eth1", "timestamp": "2021-05-27 19:18:15.570654", "net_param": {"externalIp": "151.82.49.111", "download": 3934052, "upload": 4707417, "latency": 30.223, "jitter": 6.997}, "uav_param": {"mode": "AUTO", "status": "ACTIVE", "battery": "23.492", "attitude": {"pitch": "-0.13843783736228943", "yaw": "2.891089677810669", "roll": "0.10277436673641205"}}, "gps_param": {"latitude": "44.9909248", "longitude": "10.4547911", "altitude": "21.51", "groundspeed": "3.034824848175049", "velocity": {"vx": "-2.76", "vy": "1.24", "vz": "-0.3"}, "head": "165", "hdop": "66", "vdop": "81", "satellites": "17", "fix_type": "4"}}
{"interface": "eth1", "timestamp": "2021-05-27 19:19:06.589209", "net_param": {"externalIp": "151.82.49.111", "download": 2484460, "upload": 4789861, "latency": 38.916, "jitter": 5.359}, "uav_param": {"mode": "AUTO", "status": "ACTIVE", "battery": "23.357", "attitude": {"pitch": "-0.1269441694021225", "yaw": "-1.65532386302948", "roll": "0.03420606255531311"}}, "gps_param": {"latitude": "44.9905315", "longitude": "10.4520527", "altitude": "21.78", "groundspeed": "4.974668025970459", "velocity": {"vx": "-0.49", "vy": "-4.95", "vz": "-0.04"}, "head": "265", "hdop": "66", "vdop": "81", "satellites": "17", "fix_type": "4"}}
{"interface": "eth1", "timestamp": "2021-05-27 19:19:52.484992", "net_param": {"externalIp": "151.82.49.111", "download": 4047177, "upload": 4694675, "latency": 29.867, "jitter": 5.573}, "uav_param": {"mode": "AUTO", "status": "ACTIVE", "battery": "23.004", "attitude": {"pitch": "-0.11703503131866455", "yaw": "1.4415398836135864", "roll": "-0.03156675770878792"}}, "gps_param": {"latitude": "44.9903742", "longitude": "10.4529844", "altitude": "21.75", "groundspeed": "4.987514495849609", "velocity": {"vx": "0.54", "vy": "4.95", "vz": "-0.09"}, "head": "82", "hdop": "73", "vdop": "90", "satellites": "16", "fix_type": "4"}}
{"interface": "eth1", "timestamp": "2021-05-27 19:20:44.180186", "net_param": {"externalIp": "151.82.49.111", "download": 3125992, "upload": 4988811, "latency": 31.982, "jitter": 3.002}, "uav_param": {"mode": "AUTO", "status": "ACTIVE", "battery": "22.835", "attitude": {"pitch": "-0.13004638254642487", "yaw": "-1.856235146522522", "roll": "0.030762355774641037"}}, "gps_param": {"latitude": "44.9903736", "longitude": "10.4543033", "altitude": "21.76", "groundspeed": "4.7545599937438965", "velocity": {"vx": "-1.58", "vy": "-4.48", "vz": "-0.05"}, "head": "253", "hdop": "72", "vdop": "88", "satellites": "17", "fix_type": "4"}}
{"interface": "eth1", "timestamp": "2021-05-27 19:21:37.582000", "net_param": {"externalIp": "151.82.49.111", "download": 4202745, "upload": 4787352, "latency": 34.066, "jitter": 20.49}, "uav_param": {"mode": "AUTO", "status": "ACTIVE", "battery": "22.621", "attitude": {"pitch": "-0.08621713519096375", "yaw": "-2.9943618774414062", "roll": "-0.047276198863983154"}}, "gps_param": {"latitude": "44.989953", "longitude": "10.4512047", "altitude": "21.63", "groundspeed": "4.015461444854736", "velocity": {"vx": "-3.93", "vy": "-0.81", "vz": "-0.2"}, "head": "188", "hdop": "77", "vdop": "99", "satellites": "15", "fix_type": "4"}}
{"interface": "eth1", "timestamp": "2021-05-27 19:22:29.389042", "net_param": {"externalIp": "151.82.49.111", "download": 3405480, "upload": 4766956, "latency": 47.158, "jitter": 13.648}, "uav_param": {"mode": "AUTO", "status": "ACTIVE", "battery": "22.44", "attitude": {"pitch": "0.042069725692272186", "yaw": "-3.0569498538970947", "roll": "0.09732566773891449"}}, "gps_param": {"latitude": "44.9897865", "longitude": "10.4535138", "altitude": "21.93", "groundspeed": "3.8242714405059814", "velocity": {"vx": "-3.79", "vy": "-0.44", "vz": "0.13"}, "head": "184", "hdop": "72", "vdop": "88", "satellites": "17", "fix_type": "4"}}
{"interface": "eth1", "timestamp": "2021-05-27 19:23:20.180350", "net_param": {"externalIp": "151.82.49.111", "download": 4941358, "upload": 4929618, "latency": 32.894, "jitter": 1.824}, "uav_param": {"mode": "AUTO", "status": "ACTIVE", "battery": "22.281", "attitude": {"pitch": "-0.14288601279258728", "yaw": "1.415540099143982", "roll": "-0.039852987974882126"}}, "gps_param": {"latitude": "44.9893441", "longitude": "10.451258", "altitude": "21.85", "groundspeed": "3.6565287113189697", "velocity": {"vx": "0.16", "vy": "3.65", "vz": "0.02"}, "head": "77", "hdop": "73", "vdop": "89", "satellites": "16", "fix_type": "4"}}
{"interface": "eth1", "timestamp": "2021-05-27 19:23:59.678774", "net_param": {"externalIp": "151.82.49.111", "download": 2091447, "upload": 5051142, "latency": 30.925, "jitter": 4.242}, "uav_param": {"mode": "AUTO", "status": "ACTIVE", "battery": "22.153", "attitude": {"pitch": "-0.11459553986787796", "yaw": "-1.680277705192566", "roll": "0.020142726600170135"}}, "gps_param": {"latitude": "44.9892628", "longitude": "10.4531893", "altitude": "21.88", "groundspeed": "4.528349876403809", "velocity": {"vx": "-0.54", "vy": "-4.49", "vz": "0.06"}, "head": "263", "hdop": "73", "vdop": "88", "satellites": "16", "fix_type": "4"}}
{"interface": "eth1", "timestamp": "2021-05-27 19:24:45.667469", "net_param": {"externalIp": "151.82.49.111", "download": 4992809, "upload": 5157822, "latency": 29.908, "jitter": 2.323}, "uav_param": {"mode": "AUTO", "status": "ACTIVE", "battery": "22.02", "attitude": {"pitch": "0.0819491520524025", "yaw": "2.9576542377471924", "roll": "-0.07957075536251068"}}, "gps_param": {"latitude": "44.9888904", "longitude": "10.4511154", "altitude": "21.72", "groundspeed": "1.7022603750228882", "velocity": {"vx": "-1.69", "vy": "0.2", "vz": "-0.11"}, "head": "169", "hdop": "72", "vdop": "87", "satellites": "17", "fix_type": "4"}}
{"interface": "eth1", "timestamp": "2021-05-27 19:25:32.875833", "net_param": {"externalIp": "151.82.49.111", "download": 2870607, "upload": 4092813, "latency": 28.908, "jitter": 7.272}, "uav_param": {"mode": "AUTO", "status": "ACTIVE", "battery": "21.944", "attitude": {"pitch": "-0.13278773427009583", "yaw": "-3.110198974609375", "roll": "0.024416133761405945"}}, "gps_param": {"latitude": "44.988961", "longitude": "10.4534282", "altitude": "21.85", "groundspeed": "3.9028916358947754", "velocity": {"vx": "-3.89", "vy": "-0.2", "vz": "0.03"}, "head": "181", "hdop": "73", "vdop": "88", "satellites": "16", "fix_type": "4"}}
{"interface": "eth1", "timestamp": "2021-05-27 19:26:25.871731", "net_param": {"externalIp": "151.82.49.111", "download": 4475352, "upload": 4936218, "latency": 37.922, "jitter": 4.336}, "uav_param": {"mode": "AUTO", "status": "ACTIVE", "battery": "21.937", "attitude": {"pitch": "0.08395317196846008", "yaw": "-2.2164673805236816", "roll": "0.08719830214977264"}}, "gps_param": {"latitude": "44.9894839", "longitude": "10.4523265", "altitude": "21.82", "groundspeed": "4.827483654022217", "velocity": {"vx": "4.79", "vy": "0.56", "vz": "-0.01"}, "head": "233", "hdop": "72", "vdop": "87", "satellites": "17", "fix_type": "4"}}
{"interface": "eth1", "timestamp": "2021-05-27 19:27:16.166982", "net_param": {"externalIp": "151.82.49.111", "download": 4150078, "upload": 5007848, "latency": 32.017, "jitter": 5.972}, "uav_param": {"mode": "POSHOLD", "status": "ACTIVE", "battery": "21.073", "attitude": {"pitch": "-0.615817666053772", "yaw": "-2.1110148429870605", "roll": "-0.0448174886405468"}}, "gps_param": {"latitude": "44.9903916", "longitude": "10.4532803", "altitude": "29.35", "groundspeed": "17.42037010192871", "velocity": {"vx": "-8.89", "vy": "-14.97", "vz": "0.92"}, "head": "239", "hdop": "69", "vdop": "80", "satellites": "18", "fix_type": "4"}}
{"interface": "eth1", "timestamp": "2021-05-27 19:28:07.313395", "net_param": {"externalIp": "151.82.49.111", "download": 2959245, "upload": 4828634, "latency": 31.912, "jitter": 12.574}, "uav_param": {"mode": "POSHOLD", "status": "ACTIVE", "battery": "21.611", "attitude": {"pitch": "-0.019275788217782974", "yaw": "-2.9984474182128906", "roll": "0.03334778547286987"}}, "gps_param": {"latitude": "44.9909225", "longitude": "10.4517464", "altitude": "28.15", "groundspeed": "0.08394880592823029", "velocity": {"vx": "-0.05", "vy": "0.06", "vz": "-0.27"}, "head": "188", "hdop": "70", "vdop": "80", "satellites": "17", "fix_type": "4"}}
{"interface": "eth1", "timestamp": "2021-05-27 19:28:56.186256", "net_param": {"externalIp": "151.82.49.111", "download": 2479827, "upload": 5173269, "latency": 27.735, "jitter": 4.88}, "uav_param": {"mode": "POSHOLD", "status": "ACTIVE", "battery": "21.519", "attitude": {"pitch": "-0.11067613959312439", "yaw": "2.2386014461517334", "roll": "0.10901553928852081"}}, "gps_param": {"latitude": "44.9905054", "longitude": "10.4527787", "altitude": "31.84", "groundspeed": "0.9158946871757507", "velocity": {"vx": "0.86", "vy": "0.3", "vz": "0.17"}, "head": "128", "hdop": "70", "vdop": "80", "satellites": "17", "fix_type": "4"}}
{"interface": "eth1", "timestamp": "2021-05-27 19:29:40.948494", "net_param": {"externalIp": "151.82.49.111", "download": 4836013, "upload": 2689916, "latency": 30.067, "jitter": 4.332}, "uav_param": {"mode": "RTL", "status": "ACTIVE", "battery": "21.495", "attitude": {"pitch": "0.005044453777372837", "yaw": "2.086998701095581", "roll": "-0.022334884852170944"}}, "gps_param": {"latitude": "44.9907219", "longitude": "10.4526723", "altitude": "0.28", "groundspeed": "0.09036891162395477", "velocity": {"vx": "-0.07", "vy": "0.05", "vz": "0.52"}, "head": "119", "hdop": "70", "vdop": "80", "satellites": "17", "fix_type": "4"}}
{"interface": "eth1", "timestamp": "2021-07-05 10:09:00.430923", "net_param": {"externalIp": "151.46.56.170", "download": 3570715, "upload": 1100337, "latency": 26.172, "jitter": 4.641}, "uav_param": {"mode": "POSHOLD", "status": "STANDBY", "battery": "24.828", "attitude": {"pitch": "0.03069363534450531", "yaw": "0.20851494371891022", "roll": "-0.0172186940908432"}}, "gps_param": {"latitude": "45.0044948", "longitude": "10.4689684", "altitude": "18.33", "groundspeed": "0.19816721975803375", "velocity": {"vx": "0.14", "vy": "-0.13", "vz": "-0.01"}, "head": "11", "hdop": "75", "vdop": "113", "satellites": "15", "fix_type": "3"}}
{"interface": "eth1", "timestamp": "2021-07-05 10:09:49.282954", "net_param": {"externalIp": "151.46.56.170", "download": 2752488, "upload": 4824360, "latency": 28, "jitter": 5.789}, "uav_param": {"mode": "POSHOLD", "status": "ACTIVE", "battery": "24.048", "attitude": {"pitch": "0.002792849438264966", "yaw": "0.1978028416633606", "roll": "-0.024546939879655838"}}, "gps_param": {"latitude": "45.0045226", "longitude": "10.469008", "altitude": "21.57", "groundspeed": "0.34088432788848877", "velocity": {"vx": "0.29", "vy": "-0.17", "vz": "-0.12"}, "head": "11", "hdop": "75", "vdop": "114", "satellites": "15", "fix_type": "4"}}
{"interface": "eth1", "timestamp": "2021-07-05 10:10:45.074051", "net_param": {"externalIp": "151.46.56.170", "download": 1567500, "upload": 4202977, "latency": 33.047, "jitter": 16.039}, "uav_param": {"mode": "POSHOLD", "status": "ACTIVE", "battery": "23.71", "attitude": {"pitch": "-0.11940478533506393", "yaw": "0.18042708933353424", "roll": "-0.07527981698513031"}}, "gps_param": {"latitude": "45.0046392", "longitude": "10.4690633", "altitude": "85.27", "groundspeed": "0.8486727476119995", "velocity": {"vx": "0.83", "vy": "0.12", "vz": "-1.27"}, "head": "10", "hdop": "75", "vdop": "114", "satellites": "15", "fix_type": "4"}}
{"interface": "eth1", "timestamp": "2021-07-05 10:11:41.747276", "net_param": {"externalIp": "151.46.56.170", "download": 1554822, "upload": 3698293, "latency": 24.752, "jitter": 9.782}, "uav_param": {"mode": "POSHOLD", "status": "ACTIVE", "battery": "23.502", "attitude": {"pitch": "0.03672616183757782", "yaw": "0.1785188764333725", "roll": "-0.07310761511325836"}}, "gps_param": {"latitude": "45.004768", "longitude": "10.4691846", "altitude": "118.81", "groundspeed": "3.9132118225097656", "velocity": {"vx": "-3.84", "vy": "-0.71", "vz": "-0.32"}, "head": "10", "hdop": "75", "vdop": "115", "satellites": "15", "fix_type": "4"}}
{"interface": "eth1", "timestamp": "2021-07-05 10:12:30.089111", "net_param": {"externalIp": "151.46.56.170", "download": 1538620, "upload": 3362358, "latency": 50.776, "jitter": 6.718}, "uav_param": {"mode": "POSHOLD", "status": "ACTIVE", "battery": "23.162", "attitude": {"pitch": "-0.1252049207687378", "yaw": "0.47461822628974915", "roll": "-0.13406330347061157"}}, "gps_param": {"latitude": "45.005266", "longitude": "10.4692903", "altitude": "135.74", "groundspeed": "0.660374104976654", "velocity": {"vx": "-0.62", "vy": "0.22", "vz": "-0.49"}, "head": "27", "hdop": "75", "vdop": "115", "satellites": "15", "fix_type": "4"}}
