{"interface": "wlan0", "timestamp": "2021-05-26 11:37:20.681584", "networks": [{"ssid": "Xiaomi MI 9T", "mac": "DE:8B:BA:18:39:46", "rssi": "-71.0", "quality": "96", "frequency": "2.417", "encryption": "wpa2", "bitrate": "390.0"}], "uav_param": {"mode": "POSHOLD", "status": "STANDBY", "battery": "24.784", "attitude": {"pitch": "-0.061616189777851105", "yaw": "1.3587247133255005", "roll": "0.015148169361054897"}}, "gps_param": {"latitude": "45.0059434", "longitude": "10.461004", "altitude": "18.17", "groundspeed": "0.16378596425056458", "velocity": {"vx": "0.15", "vy": "0.06", "vz": "0.07"}, "head": "77", "hdop": "69", "vdop": "87", "satellites": "16", "fix_type": "4"}}
{"interface": "wlan0", "timestamp": "2021-05-26 11:37:26.098403", "networks": [{"ssid": "Xiaomi MI 9T", "mac": "DE:8B:BA:18:39:46", "rssi": "-71.0", "quality": "96", "frequency": "2.417", "encryption": "wpa2", "bitrate": "390.0"}], "uav_param": {"mode": "POSHOLD", "status": "STANDBY", "battery": "24.792", "attitude": {"pitch": "-0.06205381453037262", "yaw": "1.3587641716003418", "roll": "0.015171211212873459"}}, "gps_param": {"latitude": "45.0059423", "longitude": "10.4610036", "altitude": "18.06", "groundspeed": "0.18300563097000122", "velocity": {"vx": "0.16", "vy": "0.08", "vz": "0.1"}, "head": "77", "hdop": "69", "vdop": "87", "satellites": "16", "fix_type": "4"}}
{"interface": "wlan0", "timestamp": "2021-05-26 11:37:31.619429", "networks": [{"ssid": "Xiaomi MI 9T", "mac": "DE:8B:BA:18:39:46", "rssi": "-71.5", "quality": "96", "frequency": "2.417", "encryption": "wpa2", "bitrate": "390.0"}], "uav_param": {"mode": "POSHOLD", "status": "STANDBY", "battery": "24.778", "attitude": {"pitch": "-0.06256407499313354", "yaw": "1.3590141534805298", "roll": "0.015346566215157509"}}, "gps_param": {"latitude": "45.0059396", "longitude": "10.4610036", "altitude": "18.16", "groundspeed": "0.20371116697788239", "velocity": {"vx": "0.16", "vy": "0.12", "vz": "0.07"}, "head": "77", "hdop": "69", "vdop": "87", "satellites": "16", "fix_type": "4"}}
{"interface": "wlan0", "timestamp": "2021-05-26 11:37:37.155362", "networks": [{"ssid": "Xiaomi MI 9T", "mac": "DE:8B:BA:18:39:46", "rssi": "-71.5", "quality": "96", "frequency": "2.417", "encryption": "wpa2", "bitrate": "390.0"}], "uav_param": {"mode": "POSHOLD", "status": "STANDBY", "battery": "24.79", "attitude": {"pitch": "-0.061308808624744415", "yaw": "1.358849287033081", "roll": "0.01596689224243164"}}, "gps_param": {"latitude": "45.0059383", "longitude": "10.4610042", "altitude": "18.23", "groundspeed": "0.19163614511489868", "velocity": {"vx": "0.16", "vy": "0.09", "vz": "0.06"}, "head": "77", "hdop": "69", "vdop": "87", "satellites": "16", "fix_type": "4"}}
{"interface": "wlan0", "timestamp": "2021-05-26 11:37:42.679825", "networks": [{"ssid": "Xiaomi MI 9T", "mac": "DE:8B:BA:18:39:46", "rssi": "-72.0", "quality": "96", "frequency": "2.417", "encryption": "wpa2", "bitrate": "390.0"}], "uav_param": {"mode": "POSHOLD", "status": "STANDBY", "battery": "24.785", "attitude": {"pitch": "-0.06109254062175751", "yaw": "1.3583340644836426", "roll": "0.016404081135988235"}}, "gps_param": {"latitude": "45.0059384", "longitude": "10.461005", "altitude": "18.31", "groundspeed": "0.20587827265262604", "velocity": {"vx": "0.17", "vy": "0.1", "vz": "0.05"}, "head": "77", "hdop": "69", "vdop": "87", "satellites": "16", "fix_type": "4"}}
{"interface": "wlan0", "timestamp": "2021-05-26 11:37:48.216962", "networks": [{"ssid": "Xiaomi MI 9T", "mac": "DE:8B:BA:18:39:46", "rssi": "-72.0", "quality": "96", "frequency": "2.417", "encryption": "wpa2", "bitrate": "390.0"}], "uav_param": {"mode": "POSHOLD", "status": "STANDBY", "battery": "24.775", "attitude": {"pitch": "-0.06102953851222992", "yaw": "1.357592225074768", "roll": "0.01620906963944435"}}, "gps_param": {"latitude": "45.0059381", "longitude": "10.4610072", "altitude": "18.26", "groundspeed": "0.20851300656795502", "velocity": {"vx": "0.18", "vy": "0.1", "vz": "0.08"}, "head": "77", "hdop": "69", "vdop": "87", "satellites": "16", "fix_type": "4"}}
{"interface": "wlan0", "timestamp": "2021-05-26 11:37:53.772555", "networks": [{"ssid": "Xiaomi MI 9T", "mac": "DE:8B:BA:18:39:46", "rssi": "-73.0", "quality": "96", "frequency": "2.417", "encryption": "wpa2", "bitrate": "390.0"}], "uav_param": {"mode": "POSHOLD", "status": "STANDBY", "battery": "24.79", "attitude": {"pitch": "-0.061039574444293976", "yaw": "1.3575057983398438", "roll": "0.01736327074468136"}}, "gps_param": {"latitude": "45.0059388", "longitude": "10.461008", "altitude": "18.37", "groundspeed": "0.1956975907087326", "velocity": {"vx": "0.16", "vy": "0.1", "vz": "0.05"}, "head": "77", "hdop": "69", "vdop": "87", "satellites": "16", "fix_type": "4"}}
{"interface": "wlan0", "timestamp": "2021-05-26 11:37:59.305294", "networks": [{"ssid": "Xiaomi MI 9T", "mac": "DE:8B:BA:18:39:46", "rssi": "-73.5", "quality": "96", "frequency": "2.417", "encryption": "wpa2", "bitrate": "390.0"}], "uav_param": {"mode": "POSHOLD", "status": "STANDBY", "battery": "24.782", "attitude": {"pitch": "-0.060509759932756424", "yaw": "1.3570582866668701", "roll": "0.0174227487295866"}}, "gps_param": {"latitude": "45.0059374", "longitude": "10.4610092", "altitude": "18.42", "groundspeed": "0.17411978542804718", "velocity": {"vx": "0.14", "vy": "0.09", "vz": "0.05"}, "head": "77", "hdop": "69", "vdop": "87", "satellites": "16", "fix_type": "4"}}
{"interface": "wlan0", "timestamp": "2021-05-26 11:38:04.819553", "networks": [{"ssid": "Xiaomi MI 9T", "mac": "DE:8B:BA:18:39:46", "rssi": "-73.5", "quality": "96", "frequency": "2.417", "encryption": "wpa2", "bitrate": "390.0"}], "uav_param": {"mode": "POSHOLD", "status": "STANDBY", "battery": "24.778", "attitude": {"pitch": "-0.060180019587278366", "yaw": "1.356306791305542", "roll": "0.017764437943696976"}}, "gps_param": {"latitude": "45.0059372", "longitude": "10.4610092", "altitude": "18.36", "groundspeed": "0.16327594220638275", "velocity": {"vx": "0.14", "vy": "0.08", "vz": "0.07"}, "head": "77", "hdop": "69", "vdop": "87", "satellites": "16", "fix_type": "4"}}
{"interface": "wlan0", "timestamp": "2021-05-26 11:38:09.654316", "networks": [{"ssid": "Xiaomi MI 9T", "mac": "DE:8B:BA:18:39:46", "rssi": "-74.0", "quality": "96", "frequency": "2.417", "encryption": "wpa2", "bitrate": "390.0"}], "uav_param": {"mode": "POSHOLD", "status": "STANDBY", "battery": "24.769", "attitude": {"pitch": "-0.05997471883893013", "yaw": "1.355555534362793", "roll": "0.018664274364709854"}}, "gps_param": {"latitude": "45.0059398", "longitude": "10.461011", "altitude": "18.26", "groundspeed": "0.17357154190540314", "velocity": {"vx": "0.14", "vy": "0.09", "vz": "0.08"}, "head": "77", "hdop": "69", "vdop": "87", "satellites": "16", "fix_type": "4"}}
{"interface": "wlan0", "timestamp": "2021-05-26 11:38:14.864045", "networks": [{"ssid": "Xiaomi MI 9T", "mac": "DE:8B:BA:18:39:46", "rssi": "-74.5", "quality": "96", "frequency": "2.417", "encryption": "wpa2", "bitrate": "390.0"}], "uav_param": {"mode": "POSHOLD", "status": "STANDBY", "battery": "24.778", "attitude": {"pitch": "-0.05987861007452011", "yaw": "1.3550879955291748", "roll": "0.01823660172522068"}}, "gps_param": {"latitude": "45.0059413", "longitude": "10.4610124", "altitude": "18.28", "groundspeed": "0.1871231645345688", "velocity": {"vx": "0.15", "vy": "0.09", "vz": "0.06"}, "head": "77", "hdop": "69", "vdop": "87", "satellites": "16", "fix_type": "4"}}
{"interface": "wlan0", "timestamp": "2021-05-26 11:38:20.396412", "networks": [{"ssid": "Xiaomi MI 9T", "mac": "DE:8B:BA:18:39:46", "rssi": "-74.5", "quality": "96", "frequency": "2.417", "encryption": "wpa2", "bitrate": "390.0"}], "uav_param": {"mode": "POSHOLD", "status": "STANDBY", "battery": "24.788", "attitude": {"pitch": "-0.05896233767271042", "yaw": "1.3540754318237305", "roll": "0.01922254078090191"}}, "gps_param": {"latitude": "45.0059415", "longitude": "10.4610117", "altitude": "18.17", "groundspeed": "0.1182064339518547", "velocity": {"vx": "0.1", "vy": "0.05", "vz": "0.09"}, "head": "77", "hdop": "69", "vdop": "87", "satellites": "16", "fix_type": "4"}}
{"interface": "wlan0", "timestamp": "2021-05-26 11:38:25.931522", "networks": [{"ssid": "Xiaomi MI 9T", "mac": "DE:8B:BA:18:39:46", "rssi": "-74.5", "quality": "96", "frequency": "2.417", "encryption": "wpa2", "bitrate": "390.0"}], "uav_param": {"mode": "POSHOLD", "status": "STANDBY", "battery": "24.769", "attitude": {"pitch": "-0.0595812126994133", "yaw": "1.3535735607147217", "roll": "0.01825602538883686"}}, "gps_param": {"latitude": "45.0059428", "longitude": "10.4610113", "altitude": "18.15", "groundspeed": "0.18129098415374756", "velocity": {"vx": "0.16", "vy": "0.07", "vz": "0.07"}, "head": "77", "hdop": "69", "vdop": "87", "satellites": "16", "fix_type": "4"}}
{"interface": "wlan0", "timestamp": "2021-05-26 11:38:31.459178", "networks": [{"ssid": "Xiaomi MI 9T", "mac": "DE:8B:BA:18:39:46", "rssi": "-75.0", "quality": "96", "frequency": "2.417", "encryption": "wpa2", "bitrate": "390.0"}], "uav_param": {"mode": "POSHOLD", "status": "STANDBY", "battery": "24.777", "attitude": {"pitch": "-0.05970875918865204", "yaw": "1.352935552597046", "roll": "0.01864987052977085"}}, "gps_param": {"latitude": "45.0059453", "longitude": "10.4610116", "altitude": "18.28", "groundspeed": "0.19518612325191498", "velocity": {"vx": "0.17", "vy": "0.08", "vz": "0.03"}, "head": "77", "hdop": "69", "vdop": "87", "satellites": "16", "fix_type": "4"}}
{"interface": "wlan0", "timestamp": "2021-05-26 11:38:36.997570", "networks": [{"ssid": "Xiaomi MI 9T", "mac": "DE:8B:BA:18:39:46", "rssi": "-74.0", "quality": "96", "frequency": "2.417", "encryption": "wpa2", "bitrate": "390.0"}], "uav_param": {"mode": "POSHOLD", "status": "STANDBY", "battery": "24.765", "attitude": {"pitch": "-0.05935458466410637", "yaw": "1.3516427278518677", "roll": "0.018825845792889595"}}, "gps_param": {"latitude": "45.0059459", "longitude": "10.4610121", "altitude": "18.33", "groundspeed": "0.17315666377544403", "velocity": {"vx": "0.15", "vy": "0.08", "vz": "0.03"}, "head": "77", "hdop": "69", "vdop": "87", "satellites": "16", "fix_type": "4"}}
{"interface": "wlan0", "timestamp": "2021-05-26 11:38:42.634902", "networks": [{"ssid": "Xiaomi MI 9T", "mac": "DE:8B:BA:18:39:46", "rssi": "-74.0", "quality": "96", "frequency": "2.417", "encryption": "wpa2", "bitrate": "390.0"}], "uav_param": {"mode": "POSHOLD", "status": "STANDBY", "battery": "24.761", "attitude": {"pitch": "-0.059124529361724854", "yaw": "1.3511170148849487", "roll": "0.019117280840873718"}}, "gps_param": {"latitude": "45.005946", "longitude": "10.461013", "altitude": "18.31", "groundspeed": "0.14688998460769653", "velocity": {"vx": "0.12", "vy": "0.07", "vz": "0.04"}, "head": "77", "hdop": "69", "vdop": "88", "satellites": "16", "fix_type": "4"}}
{"interface": "wlan0", "timestamp": "2021-05-26 11:38:48.064724", "networks": [{"ssid": "Xiaomi MI 9T", "mac": "DE:8B:BA:18:39:46", "rssi": "-74.0", "quality": "96", "frequency": "2.417", "encryption": "wpa2", "bitrate": "390.0"}], "uav_param": {"mode": "POSHOLD", "status": "STANDBY", "battery": "24.769", "attitude": {"pitch": "-0.05885976925492287", "yaw": "1.350409746170044", "roll": "0.019091662019491196"}}, "gps_param": {"latitude": "45.0059437", "longitude": "10.4610131", "altitude": "18.31", "groundspeed": "0.10984423756599426", "velocity": {"vx": "0.08", "vy": "0.06", "vz": "0.04"}, "head": "77", "hdop": "69", "vdop": "88", "satellites": "16", "fix_type": "4"}}
{"interface": "wlan0", "timestamp": "2021-05-26 11:38:53.597786", "networks": [{"ssid": "Xiaomi MI 9T", "mac": "DE:8B:BA:18:39:46", "rssi": "-74.0", "quality": "96", "frequency": "2.417", "encryption": "wpa2", "bitrate": "390.0"}], "uav_param": {"mode": "POSHOLD", "status": "STANDBY", "battery": "24.762", "attitude": {"pitch": "-0.05954006686806679", "yaw": "1.3497557640075684", "roll": "0.01841041073203087"}}, "gps_param": {"latitude": "45.005943", "longitude": "10.4610142", "altitude": "18.37", "groundspeed": "0.16917921602725983", "velocity": {"vx": "0.14", "vy": "0.08", "vz": "0.02"}, "head": "77", "hdop": "69", "vdop": "88", "satellites": "16", "fix_type": "4"}}
{"interface": "wlan0", "timestamp": "2021-05-26 11:38:59.126768", "networks": [{"ssid": "Xiaomi MI 9T", "mac": "DE:8B:BA:18:39:46", "rssi": "-74.0", "quality": "96", "frequency": "2.417", "encryption": "wpa2", "bitrate": "390.0"}], "uav_param": {"mode": "POSHOLD", "status": "STANDBY", "battery": "24.775", "attitude": {"pitch": "-0.058798134326934814", "yaw": "1.3490761518478394", "roll": "0.019460009410977364"}}, "gps_param": {"latitude": "45.0059415", "longitude": "10.4610135", "altitude": "18.35", "groundspeed": "0.13157621026039124", "velocity": {"vx": "0.11", "vy": "0.07", "vz": "0.03"}, "head": "77", "hdop": "69", "vdop": "88", "satellites": "16", "fix_type": "4"}}
{"interface": "wlan0", "timestamp": "2021-05-26 11:39:04.666370", "networks": [{"ssid": "Xiaomi MI 9T", "mac": "DE:8B:BA:18:39:46", "rssi": "-74.5", "quality": "96", "frequency": "2.417", "encryption": "wpa2", "bitrate": "390.0"}], "uav_param": {"mode": "POSHOLD", "status": "STANDBY", "battery": "24.779", "attitude": {"pitch": "-0.05906709283590317", "yaw": "1.3479846715927124", "roll": "0.019785361364483833"}}, "gps_param": {"latitude": "45.0059418", "longitude": "10.4610136", "altitude": "18.26", "groundspeed": "0.14245371520519257", "velocity": {"vx": "0.11", "vy": "0.08", "vz": "0.04"}, "head": "77", "hdop": "69", "vdop": "88", "satellites": "16", "fix_type": "4"}}
{"interface": "wlan0", "timestamp": "2021-05-26 11:39:09.695543", "networks": [{"ssid": "Xiaomi MI 9T", "mac": "DE:8B:BA:18:39:46", "rssi": "-75.0", "quality": "96", "frequency": "2.417", "encryption": "wpa2", "bitrate": "390.0"}], "uav_param": {"mode": "POSHOLD", "status": "STANDBY", "battery": "24.779", "attitude": {"pitch": "-0.05863751843571663", "yaw": "1.347088098526001", "roll": "0.020461084321141243"}}, "gps_param": {"latitude": "45.0059387", "longitude": "10.4610116", "altitude": "18.09", "groundspeed": "0.07191141694784164", "velocity": {"vx": "0.05", "vy": "0.05", "vz": "0.07"}, "head": "77", "hdop": "69", "vdop": "88", "satellites": "16", "fix_type": "4"}}
{"interface": "wlan0", "timestamp": "2021-05-26 11:39:15.216958", "networks": [{"ssid": "Xiaomi MI 9T", "mac": "DE:8B:BA:18:39:46", "rssi": "-75.0", "quality": "96", "frequency": "2.417", "encryption": "wpa2", "bitrate": "390.0"}], "uav_param": {"mode": "POSHOLD", "status": "STANDBY", "battery": "24.778", "attitude": {"pitch": "-0.0589543953537941", "yaw": "1.34609854221344", "roll": "0.019551068544387817"}}, "gps_param": {"latitude": "45.0059366", "longitude": "10.4610118", "altitude": "18.17", "groundspeed": "0.11278458684682846", "velocity": {"vx": "0.08", "vy": "0.06", "vz": "0.03"}, "head": "77", "hdop": "69", "vdop": "88", "satellites": "16", "fix_type": "4"}}
{"interface": "wlan0", "timestamp": "2021-05-26 11:39:20.746666", "networks": [{"ssid": "Xiaomi MI 9T", "mac": "DE:8B:BA:18:39:46", "rssi": "-75.0", "quality": "96", "frequency": "2.417", "encryption": "wpa2", "bitrate": "390.0"}], "uav_param": {"mode": "POSHOLD", "status": "STANDBY", "battery": "24.778", "attitude": {"pitch": "-0.05912372097373009", "yaw": "1.3449461460113525", "roll": "0.01910119690001011"}}, "gps_param": {"latitude": "45.0059342", "longitude": "10.4610102", "altitude": "18.23", "groundspeed": "0.1303156316280365", "velocity": {"vx": "0.11", "vy": "0.06", "vz": "0.02"}, "head": "77", "hdop": "70", "vdop": "88", "satellites": "16", "fix_type": "4"}}
{"interface": "wlan0", "timestamp": "2021-05-26 11:39:26.284040", "networks": [{"ssid": "Xiaomi MI 9T", "mac": "DE:8B:BA:18:39:46", "rssi": "-75.0", "quality": "96", "frequency": "2.417", "encryption": "wpa2", "bitrate": "390.0"}], "uav_param": {"mode": "POSHOLD", "status": "STANDBY", "battery": "24.774", "attitude": {"pitch": "-0.059177614748477936", "yaw": "1.3443000316619873", "roll": "0.020104050636291504"}}, "gps_param": {"latitude": "45.0059349", "longitude": "10.4610098", "altitude": "18.26", "groundspeed": "0.15404435992240906", "velocity": {"vx": "0.13", "vy": "0.07", "vz": "0.01"}, "head": "77", "hdop": "70", "vdop": "88", "satellites": "16", "fix_type": "4"}}
{"interface": "wlan0", "timestamp": "2021-05-26 11:39:31.812626", "networks": [{"ssid": "Xiaomi MI 9T", "mac": "DE:8B:BA:18:39:46", "rssi": "-75.0", "quality": "96", "frequency": "2.417", "encryption": "wpa2", "bitrate": "390.0"}], "uav_param": {"mode": "POSHOLD", "status": "STANDBY", "battery": "24.766", "attitude": {"pitch": "-0.058432113379240036", "yaw": "1.3437899351119995", "roll": "0.020750023424625397"}}, "gps_param": {"latitude": "45.0059353", "longitude": "10.46101", "altitude": "18.22", "groundspeed": "0.13429005444049835", "velocity": {"vx": "0.11", "vy": "0.07", "vz": "0.03"}, "head": "76", "hdop": "70", "vdop": "88", "satellites": "16", "fix_type": "4"}}
{"interface": "wlan0", "timestamp": "2021-05-26 11:39:37.329224", "networks": [{"ssid": "Xiaomi MI 9T", "mac": "DE:8B:BA:18:39:46", "rssi": "-75.0", "quality": "96", "frequency": "2.417", "encryption": "wpa2", "bitrate": "390.0"}], "uav_param": {"mode": "POSHOLD", "status": "STANDBY", "battery": "24.774", "attitude": {"pitch": "-0.05826050415635109", "yaw": "1.3429226875305176", "roll": "0.020617933943867683"}}, "gps_param": {"latitude": "45.0059378", "longitude": "10.4610111", "altitude": "18.19", "groundspeed": "0.15561695396900177", "velocity": {"vx": "0.13", "vy": "0.07", "vz": "0.04"}, "head": "76", "hdop": "70", "vdop": "88", "satellites": "16", "fix_type": "4"}}
{"interface": "wlan0", "timestamp": "2021-05-26 11:39:42.860101", "networks": [{"ssid": "Xiaomi MI 9T", "mac": "DE:8B:BA:18:39:46", "rssi": "-75.0", "quality": "96", "frequency": "2.417", "encryption": "wpa2", "bitrate": "390.0"}], "uav_param": {"mode": "POSHOLD", "status": "STANDBY", "battery": "24.775", "attitude": {"pitch": "-0.05744991451501846", "yaw": "1.3421950340270996", "roll": "0.02193433791399002"}}, "gps_param": {"latitude": "45.0059386", "longitude": "10.461012", "altitude": "18.12", "groundspeed": "0.0932544618844986", "velocity": {"vx": "0.06", "vy": "0.06", "vz": "0.05"}, "head": "76", "hdop": "70", "vdop": "88", "satellites": "16", "fix_type": "4"}}
{"interface": "wlan0", "timestamp": "2021-05-26 11:39:48.392687", "networks": [{"ssid": "Xiaomi MI 9T", "mac": "DE:8B:BA:18:39:46", "rssi": "-75.0", "quality": "96", "frequency": "2.417", "encryption": "wpa2", "bitrate": "390.0"}], "uav_param": {"mode": "POSHOLD", "status": "STANDBY", "battery": "24.761", "attitude": {"pitch": "-0.05731535330414772", "yaw": "1.3414504528045654", "roll": "0.021131247282028198"}}, "gps_param": {"latitude": "45.0059396", "longitude": "10.4610123", "altitude": "18.06", "groundspeed": "0.09746529161930084", "velocity": {"vx": "0.08", "vy": "0.04", "vz": "0.06"}, "head": "76", "hdop": "70", "vdop": "88", "satellites": "16", "fix_type": "4"}}
{"interface": "wlan0", "timestamp": "2021-05-26 11:39:53.404931", "networks": [{"ssid": "Xiaomi MI 9T", "mac": "DE:8B:BA:18:39:46", "rssi": "-75.0", "quality": "96", "frequency": "2.417", "encryption": "wpa2", "bitrate": "390.0"}], "uav_param": {"mode": "POSHOLD", "status": "STANDBY", "battery": "24.761", "attitude": {"pitch": "-0.05742809548974037", "yaw": "1.340939998626709", "roll": "0.0210229754447937"}}, "gps_param": {"latitude": "45.0059397", "longitude": "10.4610133", "altitude": "18.07", "groundspeed": "0.10185015201568604", "velocity": {"vx": "0.08", "vy": "0.05", "vz": "0.05"}, "head": "76", "hdop": "70", "vdop": "88", "satellites": "16", "fix_type": "4"}}
{"interface": "wlan0", "timestamp": "2021-05-26 11:39:58.936586", "networks": [{"ssid": "Xiaomi MI 9T", "mac": "DE:8B:BA:18:39:46", "rssi": "-75.0", "quality": "96", "frequency": "2.417", "encryption": "wpa2", "bitrate": "390.0"}], "uav_param": {"mode": "POSHOLD", "status": "STANDBY", "battery": "24.768", "attitude": {"pitch": "-0.057120636105537415", "yaw": "1.3405287265777588", "roll": "0.02129233628511429"}}, "gps_param": {"latitude": "45.0059393", "longitude": "10.461012", "altitude": "18.03", "groundspeed": "0.07179713994264603", "velocity": {"vx": "0.06", "vy": "0.02", "vz": "0.06"}, "head": "76", "hdop": "70", "vdop": "88", "satellites": "16", "fix_type": "4"}}
{"interface": "wlan0", "timestamp": "2021-05-26 11:40:04.473127", "networks": [{"ssid": "Xiaomi MI 9T", "mac": "DE:8B:BA:18:39:46", "rssi": "-75.5", "quality": "96", "frequency": "2.417", "encryption": "wpa2", "bitrate": "390.0"}], "uav_param": {"mode": "POSHOLD", "status": "STANDBY", "battery": "24.777", "attitude": {"pitch": "-0.05765671283006668", "yaw": "1.3400359153747559", "roll": "0.020960383117198944"}}, "gps_param": {"latitude": "45.0059392", "longitude": "10.4610101", "altitude": "17.97", "groundspeed": "0.09145113825798035", "velocity": {"vx": "0.08", "vy": "0.03", "vz": "0.08"}, "head": "76", "hdop": "70", "vdop": "88", "satellites": "16", "fix_type": "4"}}
{"interface": "wlan0", "timestamp": "2021-05-26 11:40:09.999824", "networks": [{"ssid": "Xiaomi MI 9T", "mac": "DE:8B:BA:18:39:46", "rssi": "-75.0", "quality": "96", "frequency": "2.417", "encryption": "wpa2", "bitrate": "390.0"}], "uav_param": {"mode": "POSHOLD", "status": "STANDBY", "battery": "24.762", "attitude": {"pitch": "-0.05712033435702324", "yaw": "1.3398587703704834", "roll": "0.021247554570436478"}}, "gps_param": {"latitude": "45.0059392", "longitude": "10.4610079", "altitude": "17.88", "groundspeed": "0.07170671969652176", "velocity": {"vx": "0.06", "vy": "0.02", "vz": "0.09"}, "head": "76", "hdop": "70", "vdop": "88", "satellites": "16", "fix_type": "4"}}
{"interface": "wlan0", "timestamp": "2021-05-26 11:40:15.527334", "networks": [{"ssid": "Xiaomi MI 9T", "mac": "DE:8B:BA:18:39:46", "rssi": "-73.0", "quality": "96", "frequency": "2.417", "encryption": "wpa2", "bitrate": "390.0"}], "uav_param": {"mode": "POSHOLD", "status": "STANDBY", "battery": "24.767", "attitude": {"pitch": "-0.057736292481422424", "yaw": "1.3398394584655762", "roll": "0.021772146224975586"}}, "gps_param": {"latitude": "45.00594", "longitude": "10.4610079", "altitude": "18.0", "groundspeed": "0.08999722450971603", "velocity": {"vx": "0.07", "vy": "0.05", "vz": "0.06"}, "head": "76", "hdop": "70", "vdop": "88", "satellites": "16", "fix_type": "4"}}
{"interface": "wlan0", "timestamp": "2021-05-26 11:40:21.064972", "networks": [{"ssid": "Xiaomi MI 9T", "mac": "DE:8B:BA:18:39:46", "rssi": "-71.0", "quality": "96", "frequency": "2.417", "encryption": "wpa2", "bitrate": "390.0"}], "uav_param": {"mode": "POSHOLD", "status": "STANDBY", "battery": "24.767", "attitude": {"pitch": "-0.05694752186536789", "yaw": "1.339547872543335", "roll": "0.02208240143954754"}}, "gps_param": {"latitude": "45.0059396", "longitude": "10.4610087", "altitude": "18.05", "groundspeed": "0.0663827434182167", "velocity": {"vx": "0.04", "vy": "0.04", "vz": "0.06"}, "head": "76", "hdop": "70", "vdop": "88", "satellites": "16", "fix_type": "4"}}
{"interface": "wlan0", "timestamp": "2021-05-26 11:40:26.603819", "networks": [{"ssid": "Xiaomi MI 9T", "mac": "DE:8B:BA:18:39:46", "rssi": "-70.5", "quality": "96", "frequency": "2.417", "encryption": "wpa2", "bitrate": "390.0"}], "uav_param": {"mode": "POSHOLD", "status": "STANDBY", "battery": "24.769", "attitude": {"pitch": "-0.057222072035074234", "yaw": "1.3393405675888062", "roll": "0.02128410153090954"}}, "gps_param": {"latitude": "45.0059397", "longitude": "10.4610078", "altitude": "18.0", "groundspeed": "0.09651371091604233", "velocity": {"vx": "0.08", "vy": "0.03", "vz": "0.08"}, "head": "76", "hdop": "70", "vdop": "88", "satellites": "16", "fix_type": "4"}}
{"interface": "wlan0", "timestamp": "2021-05-26 11:40:32.128024", "networks": [{"ssid": "Xiaomi MI 9T", "mac": "DE:8B:BA:18:39:46", "rssi": "-71.0", "quality": "96", "frequency": "2.417", "encryption": "wpa2", "bitrate": "390.0"}], "uav_param": {"mode": "POSHOLD", "status": "STANDBY", "battery": "24.754", "attitude": {"pitch": "-0.05638634413480759", "yaw": "1.3392030000686646", "roll": "0.0220671147108078"}}, "gps_param": {"latitude": "45.0059413", "longitude": "10.4610075", "altitude": "17.93", "groundspeed": "0.07029276341199875", "velocity": {"vx": "0.06", "vy": "0.01", "vz": "0.09"}, "head": "76", "hdop": "71", "vdop": "88", "satellites": "15", "fix_type": "4"}}
{"interface": "wlan0", "timestamp": "2021-05-26 11:40:37.075853", "networks": [{"ssid": "Xiaomi MI 9T", "mac": "DE:8B:BA:18:39:46", "rssi": "-72.5", "quality": "96", "frequency": "2.417", "encryption": "wpa2", "bitrate": "390.0"}], "uav_param": {"mode": "POSHOLD", "status": "STANDBY", "battery": "24.755", "attitude": {"pitch": "-0.05691025033593178", "yaw": "1.3388049602508545", "roll": "0.02202070876955986"}}, "gps_param": {"latitude": "45.0059447", "longitude": "10.4610089", "altitude": "18.02", "groundspeed": "0.12047909945249557", "velocity": {"vx": "0.1", "vy": "0.05", "vz": "0.07"}, "head": "76", "hdop": "70", "vdop": "88", "satellites": "16", "fix_type": "4"}}
{"interface": "wlan0", "timestamp": "2021-05-26 11:40:42.691440", "networks": [{"ssid": "Xiaomi MI 9T", "mac": "DE:8B:BA:18:39:46", "rssi": "-73.0", "quality": "96", "frequency": "2.417", "encryption": "wpa2", "bitrate": "390.0"}], "uav_param": {"mode": "POSHOLD", "status": "STANDBY", "battery": "24.715", "attitude": {"pitch": "-0.056275300681591034", "yaw": "1.3368372917175293", "roll": "0.021988261491060257"}}, "gps_param": {"latitude": "45.0059457", "longitude": "10.4610086", "altitude": "18.09", "groundspeed": "0.07916045188903809", "velocity": {"vx": "0.07", "vy": "0.03", "vz": "0.04"}, "head": "76", "hdop": "70", "vdop": "89", "satellites": "16", "fix_type": "4"}}
{"interface": "wlan0", "timestamp": "2021-05-26 11:40:48.231186", "networks": [{"ssid": "Xiaomi MI 9T", "mac": "DE:8B:BA:18:39:46", "rssi": "-73.5", "quality": "96", "frequency": "2.417", "encryption": "wpa2", "bitrate": "390.0"}], "uav_param": {"mode": "POSHOLD", "status": "STANDBY", "battery": "24.626", "attitude": {"pitch": "-0.05347106233239174", "yaw": "1.3342398405075073", "roll": "0.021385718137025833"}}, "gps_param": {"latitude": "45.005944", "longitude": "10.4610056", "altitude": "17.98", "groundspeed": "0.04526770859956741", "velocity": {"vx": "0.04", "vy": "0.0", "vz": "0.08"}, "head": "76", "hdop": "70", "vdop": "89", "satellites": "16", "fix_type": "4"}}
{"interface": "wlan0", "timestamp": "2021-05-26 11:40:53.748424", "networks": [{"ssid": "Xiaomi MI 9T", "mac": "DE:8B:BA:18:39:46", "rssi": "-75.0", "quality": "96", "frequency": "2.417", "encryption": "wpa2", "bitrate": "390.0"}], "uav_param": {"mode": "POSHOLD", "status": "ACTIVE", "battery": "24.101", "attitude": {"pitch": "-0.03838676959276199", "yaw": "1.3401503562927246", "roll": "0.10618789494037628"}}, "gps_param": {"latitude": "45.0059437", "longitude": "10.4610054", "altitude": "18.0", "groundspeed": "0.049107249826192856", "velocity": {"vx": "0.04", "vy": "0.02", "vz": "0.06"}, "head": "76", "hdop": "70", "vdop": "89", "satellites": "16", "fix_type": "4"}}
{"interface": "wlan0", "timestamp": "2021-05-26 11:40:59.275017", "networks": [{"ssid": "Xiaomi MI 9T", "mac": "DE:8B:BA:18:39:46", "rssi": "-75.0", "quality": "96", "frequency": "2.417", "encryption": "wpa2", "bitrate": "390.0"}], "uav_param": {"mode": "POSHOLD", "status": "ACTIVE", "battery": "23.943", "attitude": {"pitch": "-0.033005241304636", "yaw": "1.317076563835144", "roll": "-0.0055611636489629745"}}, "gps_param": {"latitude": "45.005944", "longitude": "10.4610037", "altitude": "18.84", "groundspeed": "0.14071959257125854", "velocity": {"vx": "0.04", "vy": "0.13", "vz": "-0.16"}, "head": "75", "hdop": "70", "vdop": "89", "satellites": "16", "fix_type": "4"}}
{"interface": "wlan0", "timestamp": "2021-05-26 11:41:04.810170", "networks": [{"ssid": "Xiaomi MI 9T", "mac": "DE:8B:BA:18:39:46", "rssi": "-74.0", "quality": "96", "frequency": "2.417", "encryption": "wpa2", "bitrate": "390.0"}], "uav_param": {"mode": "POSHOLD", "status": "ACTIVE", "battery": "23.913", "attitude": {"pitch": "-0.025149773806333542", "yaw": "1.3156232833862305", "roll": "0.0054331496357917786"}}, "gps_param": {"latitude": "45.0059446", "longitude": "10.4610056", "altitude": "21.13", "groundspeed": "0.06218975409865379", "velocity": {"vx": "0.06", "vy": "0.01", "vz": "-0.27"}, "head": "75", "hdop": "70", "vdop": "89", "satellites": "16", "fix_type": "4"}}
{"interface": "wlan0", "timestamp": "2021-05-26 11:41:09.737443", "networks": [{"ssid": "Xiaomi MI 9T", "mac": "DE:8B:BA:18:39:46", "rssi": "-73.0", "quality": "96", "frequency": "2.417", "encryption": "wpa2", "bitrate": "390.0"}, {"ssid": "Piscina", "mac": "70:4F:57:5D:93:04", "rssi": "-87.5", "quality": "86", "frequency": "2.412", "encryption": "wpa2", "bitrate": "300.0"}, {"ssid": "WebPocket-709D", "mac": "E0:E6:2E:41:70:9D", "rssi": "-88.0", "quality": "90", "frequency": "2.417", "encryption": "wpa2", "bitrate": "300.0"}, {"ssid": "FIR_AP_70-52", "mac": "88:DC:96:6C:B4:91", "rssi": "-95.0", "quality": "10", "frequency": "5.64", "encryption": "wpa2", "bitrate": "867.0"}], "uav_param": {"mode": "POSHOLD", "status": "ACTIVE", "battery": "23.854", "attitude": {"pitch": "-0.028326235711574554", "yaw": "1.3269927501678467", "roll": "0.00880663562566042"}}, "gps_param": {"latitude": "45.0059443", "longitude": "10.4610043", "altitude": "22.55", "groundspeed": "0.09734675288200378", "velocity": {"vx": "0.07", "vy": "0.05", "vz": "-0.24"}, "head": "76", "hdop": "70", "vdop": "89", "satellites": "16", "fix_type": "4"}}
{"interface": "wlan0", "timestamp": "2021-05-26 11:41:15.372380", "networks": [{"ssid": "Xiaomi MI 9T", "mac": "DE:8B:BA:18:39:46", "rssi": "-73.0", "quality": "96", "frequency": "2.417", "encryption": "wpa2", "bitrate": "390.0"}, {"ssid": "Piscina", "mac": "70:4F:57:5D:93:04", "rssi": "-87.5", "quality": "86", "frequency": "2.412", "encryption": "wpa2", "bitrate": "300.0"}, {"ssid": "WebPocket-709D", "mac": "E0:E6:2E:41:70:9D", "rssi": "-88.0", "quality": "90", "frequency": "2.417", "encryption": "wpa2", "bitrate": "300.0"}, {"ssid": "FIR_AP_70-52", "mac": "88:DC:96:6C:B4:91", "rssi": "-95.0", "quality": "10", "frequency": "5.64", "encryption": "wpa2", "bitrate": "867.0"}], "uav_param": {"mode": "AUTO", "status": "ACTIVE", "battery": "23.692", "attitude": {"pitch": "-0.013006788678467274", "yaw": "1.2576515674591064", "roll": "-0.0019886596128344536"}}, "gps_param": {"latitude": "45.0059436", "longitude": "10.461005", "altitude": "24.44", "groundspeed": "0.026546204462647438", "velocity": {"vx": "0.01", "vy": "-0.01", "vz": "-1.23"}, "head": "72", "hdop": "70", "vdop": "89", "satellites": "16", "fix_type": "4"}}
{"interface": "wlan0", "timestamp": "2021-05-26 11:41:20.896661", "networks": [{"ssid": "Xiaomi MI 9T", "mac": "DE:8B:BA:18:39:46", "rssi": "-75.0", "quality": "90", "frequency": "2.417", "encryption": "wpa2", "bitrate": "390.0"}, {"ssid": "Piscina", "mac": "70:4F:57:5D:93:04", "rssi": "-87.5", "quality": "85", "frequency": "2.412", "encryption": "wpa2", "bitrate": "300.0"}, {"ssid": "WebPocket-709D", "mac": "E0:E6:2E:41:70:9D", "rssi": "-88.0", "quality": "90", "frequency": "2.417", "encryption": "wpa2", "bitrate": "300.0"}, {"ssid": "FIR_AP_70-52", "mac": "88:DC:96:6C:B4:91", "rssi": "-95.0", "quality": "10", "frequency": "5.64", "encryption": "wpa2", "bitrate": "867.0"}, {"ssid": "Viadana_Set2", "mac": "74:4D:28:C1:B2:9D", "rssi": "-93.0", "quality": "15", "frequency": "5.18", "encryption": "off", "bitrate": "867.0"}, {"ssid": "CALVATONE_ZI_S2", "mac": "74:4D:28:C1:90:4B", "rssi": "-93.5", "quality": "12", "frequency": "5.26", "encryption": "wpa2", "bitrate": "780.0"}, {"ssid": "calvatone_ind_sett2_5.4", "mac": "76:4D:28:C1:90:4B", "rssi": "-93.0", "quality": "12", "frequency": "5.26", "encryption": "off", "bitrate": "780.0"}], "uav_param": {"mode": "AUTO", "status": "ACTIVE", "battery": "23.702", "attitude": {"pitch": "-0.022771410644054413", "yaw": "1.3055036067962646", "roll": "0.006284709088504314"}}, "gps_param": {"latitude": "45.0059437", "longitude": "10.4610054", "altitude": "36.22", "groundspeed": "0.07730469107627869", "velocity": {"vx": "0.07", "vy": "0.0", "vz": "-2.39"}, "head": "74", "hdop": "70", "vdop": "89", "satellites": "16", "fix_type": "4"}}
{"interface": "wlan0", "timestamp": "2021-05-26 11:41:26.425405", "networks": [{"ssid": "Xiaomi MI 9T", "mac": "DE:8B:BA:18:39:46", "rssi": "-76.5", "quality": "84", "frequency": "2.417", "encryption": "wpa2", "bitrate": "390.0"}, {"ssid": "Piscina", "mac": "70:4F:57:5D:93:04", "rssi": "-87.5", "quality": "81", "frequency": "2.412", "encryption": "wpa2", "bitrate": "300.0"}, {"ssid": "WebPocket-709D", "mac": "E0:E6:2E:41:70:9D", "rssi": "-88.0", "quality": "90", "frequency": "2.417", "encryption": "wpa2", "bitrate": "300.0"}, {"ssid": "FIR_AP_70-52", "mac": "88:DC:96:6C:B4:91", "rssi": "-95.0", "quality": "10", "frequency": "5.64", "encryption": "wpa2", "bitrate": "867.0"}, {"ssid": "Viadana_Set2", "mac": "74:4D:28:C1:B2:9D", "rssi": "-93.0", "quality": "18", "frequency": "5.18", "encryption": "off", "bitrate": "867.0"}, {"ssid": "CALVATONE_ZI_S2", "mac": "74:4D:28:C1:90:4B", "rssi": "-93.5", "quality": "12", "frequency": "5.26", "encryption": "wpa2", "bitrate": "780.0"}, {"ssid": "calvatone_ind_sett2_5.4", "mac": "76:4D:28:C1:90:4B", "rssi": "-93.0", "quality": "12", "frequency": "5.26", "encryption": "off", "bitrate": "780.0"}, {"ssid": "CcdpWifiZone", "mac": "D4:2C:44:1B:AF:C2", "rssi": "-86.0", "quality": "81", "frequency": "2.462", "encryption": "wpa2", "bitrate": "144.0"}, {"ssid": "cpc", "mac": "D4:2C:44:1B:AF:C3", "rssi": "-86.5", "quality": "82", "frequency": "2.462", "encryption": "off", "bitrate": "144.0"}, {"ssid": "RIVRE_S3", "mac": "E4:8D:8C:F3:BA:5E", "rssi": "-90.5", "quality": "30", "frequency": "5.7", "encryption": "wpa2", "bitrate": "390.0"}, {"ssid": "Rivarolo_dre_set3_5.4", "mac": "E6:8D:8C:F3:BA:5E", "rssi": "-90.0", "quality": "33", "frequency": "5.7", "encryption": "off", "bitrate": "390.0"}, {"ssid": "TEA_SANMARTINO", "mac": "E4:8D:8C:F4:74:46", "rssi": "-92.0", "quality": "18", "frequency": "5.745", "encryption": "wpa2", "bitrate": "780.0"}], "uav_param": {"mode": "AUTO", "status": "ACTIVE", "battery": "23.67", "attitude": {"pitch": "-0.035762250423431396", "yaw": "1.336004614830017", "roll": "0.00432134885340929"}}, "gps_param": {"latitude": "45.0059434", "longitude": "10.4610047", "altitude": "49.82", "groundspeed": "0.08486904948949814", "velocity": {"vx": "0.06", "vy": "-0.05", "vz": "-2.42"}, "head": "76", "hdop": "70", "vdop": "89", "satellites": "16", "fix_type": "4"}}
{"interface": "wlan0", "timestamp": "2021-05-26 11:41:31.953172", "networks": [{"ssid": "Xiaomi MI 9T", "mac": "DE:8B:BA:18:39:46", "rssi": "-76.5", "quality": "84", "frequency": "2.417", "encryption": "wpa2", "bitrate": "390.0"}, {"ssid": "Piscina", "mac": "70:4F:57:5D:93:04", "rssi": "-87.0", "quality": "80", "frequency": "2.412", "encryption": "wpa2", "bitrate": "300.0"}, {"ssid": "FIR_AP_70-52", "mac": "88:DC:96:6C:B4:91", "rssi": "-95.0", "quality": "9", "frequency": "5.64", "encryption": "wpa2", "bitrate": "867.0"}, {"ssid": "Viadana_Set2", "mac": "74:4D:28:C1:B2:9D", "rssi": "-93.0", "quality": "18", "frequency": "5.18", "encryption": "off", "bitrate": "867.0"}, {"ssid": "CALVATONE_ZI_S2", "mac": "74:4D:28:C1:90:4B", "rssi": "-93.5", "quality": "12", "frequency": "5.26", "encryption": "wpa2", "bitrate": "780.0"}, {"ssid": "calvatone_ind_sett2_5.4", "mac": "76:4D:28:C1:90:4B", "rssi": "-93.0", "quality": "12", "frequency": "5.26", "encryption": "off", "bitrate": "780.0"}, {"ssid": "CcdpWifiZone", "mac": "D4:2C:44:1B:AF:C2", "rssi": "-86.0", "quality": "81", "frequency": "2.462", "encryption": "wpa2", "bitrate": "144.0"}, {"ssid": "cpc", "mac": "D4:2C:44:1B:AF:C3", "rssi": "-86.5", "quality": "81", "frequency": "2.462", "encryption": "off", "bitrate": "144.0"}, {"ssid": "RIVRE_S3", "mac": "E4:8D:8C:F3:BA:5E", "rssi": "-91.0", "quality": "27", "frequency": "5.7", "encryption": "wpa2", "bitrate": "390.0"}, {"ssid": "Rivarolo_dre_set3_5.4", "mac": "E6:8D:8C:F3:BA:5E", "rssi": "-90.5", "quality": "29", "frequency": "5.7", "encryption": "off", "bitrate": "390.0"}, {"ssid": "TEA_SANMARTINO", "mac": "E4:8D:8C:F4:74:46", "rssi": "-92.5", "quality": "18", "frequency": "5.745", "encryption": "wpa2", "bitrate": "780.0"}, {"ssid": "CCDPCB", "mac": "D4:2C:44:1B:AF:C4", "rssi": "-87.0", "quality": "86", "frequency": "2.462", "encryption": "wpa2", "bitrate": "144.0"}, {"ssid": "CCDPLAN", "mac": "50:2F:A8:9D:A9:91", "rssi": "-87.0", "quality": "86", "frequency": "2.462", "encryption": "wpa2", "bitrate": "144.0"}, {"ssid": "Avigni_Abitazione", "mac": "74:4D:28:B4:5C:DE", "rssi": "-91.5", "quality": "15", "frequency": "5.26", "encryption": "wpa2", "bitrate": "867.0"}, {"ssid": "RIVRE_S2", "mac": "B8:69:F4:70:E2:3B", "rssi": "-91.0", "quality": "15", "frequency": "5.26", "encryption": "wpa2", "bitrate": "780.0"}], "uav_param": {"mode": "AUTO", "status": "ACTIVE", "battery": "23.717", "attitude": {"pitch": "-0.1760386824607849", "yaw": "1.460552453994751", "roll": "-0.018642928451299667"}}, "gps_param": {"latitude": "45.0059424", "longitude": "10.461029", "altitude": "58.02", "groundspeed": "1.8691234588623047", "velocity": {"vx": "0.17", "vy": "1.86", "vz": "0.03"}, "head": "83", "hdop": "70", "vdop": "89", "satellites": "16", "fix_type": "4"}}
{"interface": "wlan0", "timestamp": "2021-05-26 11:41:37.486565", "networks": [{"ssid": "Xiaomi MI 9T", "mac": "DE:8B:BA:18:39:46", "rssi": "-76.5", "quality": "84", "frequency": "2.417", "encryption": "wpa2", "bitrate": "390.0"}, {"ssid": "Piscina", "mac": "70:4F:57:5D:93:04", "rssi": "-87.0", "quality": "80", "frequency": "2.412", "encryption": "wpa2", "bitrate": "300.0"}, {"ssid": "FIR_AP_70-52", "mac": "88:DC:96:6C:B4:91", "rssi": "-95.0", "quality": "10", "frequency": "5.64", "encryption": "wpa2", "bitrate": "867.0"}, {"ssid": "Viadana_Set2", "mac": "74:4D:28:C1:B2:9D", "rssi": "-93.5", "quality": "17", "frequency": "5.18", "encryption": "off", "bitrate": "867.0"}, {"ssid": "CALVATONE_ZI_S2", "mac": "74:4D:28:C1:90:4B", "rssi": "-93.5", "quality": "12", "frequency": "5.26", "encryption": "wpa2", "bitrate": "780.0"}, {"ssid": "calvatone_ind_sett2_5.4", "mac": "76:4D:28:C1:90:4B", "rssi": "-93.0", "quality": "12", "frequency": "5.26", "encryption": "off", "bitrate": "780.0"}, {"ssid": "CcdpWifiZone", "mac": "D4:2C:44:1B:AF:C2", "rssi": "-86.0", "quality": "81", "frequency": "2.462", "encryption": "wpa2", "bitrate": "144.0"}, {"ssid": "cpc", "mac": "D4:2C:44:1B:AF:C3", "rssi": "-86.5", "quality": "81", "frequency": "2.462", "encryption": "off", "bitrate": "144.0"}, {"ssid": "RIVRE_S3", "mac": "E4:8D:8C:F3:BA:5E", "rssi": "-91.0", "quality": "27", "frequency": "5.7", "encryption": "wpa2", "bitrate": "390.0"}, {"ssid": "Rivarolo_dre_set3_5.4", "mac": "E6:8D:8C:F3:BA:5E", "rssi": "-90.5", "quality": "29", "frequency": "5.7", "encryption": "off", "bitrate": "390.0"}, {"ssid": "TEA_SANMARTINO", "mac": "E4:8D:8C:F4:74:46", "rssi": "-92.5", "quality": "18", "frequency": "5.745", "encryption": "wpa2", "bitrate": "780.0"}, {"ssid": "CCDPCB", "mac": "D4:2C:44:1B:AF:C4", "rssi": "-87.0", "quality": "86", "frequency": "2.462", "encryption": "wpa2", "bitrate": "144.0"}, {"ssid": "CCDPLAN", "mac": "50:2F:A8:9D:A9:91", "rssi": "-87.0", "quality": "86", "frequency": "2.462", "encryption": "wpa2", "bitrate": "144.0"}, {"ssid": "Avigni_Abitazione", "mac": "74:4D:28:B4:5C:DE", "rssi": "-92.0", "quality": "15", "frequency": "5.26", "encryption": "wpa2", "bitrate": "867.0"}, {"ssid": "RIVRE_S2", "mac": "B8:69:F4:70:E2:3B", "rssi": "-91.0", "quality": "15", "frequency": "5.26", "encryption": "wpa2", "bitrate": "780.0"}, {"ssid": "AG240S", "mac": "D4:2C:44:1B:AF:C0", "rssi": "-89.0", "quality": "95", "frequency": "2.462", "encryption": "wpa2", "bitrate": "144.0"}, {"ssid": "CCDPLAN", "mac": "D4:2C:44:1B:AF:C1", "rssi": "-86.0", "quality": "81", "frequency": "2.462", "encryption": "wpa2", "bitrate": "144.0"}, {"ssid": "ospiti", "mac": "00:F6:63:E9:C8:E9", "rssi": "-84.0", "quality": "72", "frequency": "2.462", "encryption": "off", "bitrate": "144.0"}], "uav_param": {"mode": "AUTO", "status": "ACTIVE", "battery": "23.685", "attitude": {"pitch": "-0.11632952839136124", "yaw": "1.474466323852539", "roll": "-0.012138139456510544"}}, "gps_param": {"latitude": "45.0059493", "longitude": "10.4612885", "altitude": "58.17", "groundspeed": "4.426301956176758", "velocity": {"vx": "0.38", "vy": "4.4", "vz": "0.15"}, "head": "84", "hdop": "70", "vdop": "89", "satellites": "16", "fix_type": "4"}}
{"interface": "wlan0", "timestamp": "2021-05-26 11:41:43.021451", "networks": [{"ssid": "Xiaomi MI 9T", "mac": "DE:8B:BA:18:39:46", "rssi": "-76.5", "quality": "84", "frequency": "2.417", "encryption": "wpa2", "bitrate": "390.0"}, {"ssid": "Piscina", "mac": "70:4F:57:5D:93:04", "rssi": "-88.0", "quality": "84", "frequency": "2.412", "encryption": "wpa2", "bitrate": "300.0"}, {"ssid": "FIR_AP_70-52", "mac": "88:DC:96:6C:B4:91", "rssi": "-95.0", "quality": "10", "frequency": "5.64", "encryption": "wpa2", "bitrate": "867.0"}, {"ssid": "Viadana_Set2", "mac": "74:4D:28:C1:B2:9D", "rssi": "-93.5", "quality": "17", "frequency": "5.18", "encryption": "off", "bitrate": "867.0"}, {"ssid": "CcdpWifiZone", "mac": "D4:2C:44:1B:AF:C2", "rssi": "-86.0", "quality": "79", "frequency": "2.462", "encryption": "wpa2", "bitrate": "144.0"}, {"ssid": "cpc", "mac": "D4:2C:44:1B:AF:C3", "rssi": "-86.5", "quality": "80", "frequency": "2.462", "encryption": "off", "bitrate": "144.0"}, {"ssid": "RIVRE_S3", "mac": "E4:8D:8C:F3:BA:5E", "rssi": "-91.0", "quality": "27", "frequency": "5.7", "encryption": "wpa2", "bitrate": "390.0"}, {"ssid": "Rivarolo_dre_set3_5.4", "mac": "E6:8D:8C:F3:BA:5E", "rssi": "-90.5", "quality": "29", "frequency": "5.7", "encryption": "off", "bitrate": "390.0"}, {"ssid": "TEA_SANMARTINO", "mac": "E4:8D:8C:F4:74:46", "rssi": "-92.5", "quality": "18", "frequency": "5.745", "encryption": "wpa2", "bitrate": "780.0"}, {"ssid": "CCDPCB", "mac": "D4:2C:44:1B:AF:C4", "rssi": "-87.0", "quality": "84", "frequency": "2.462", "encryption": "wpa2", "bitrate": "144.0"}, {"ssid": "CCDPLAN", "mac": "50:2F:A8:9D:A9:91", "rssi": "-87.0", "quality": "86", "frequency": "2.462", "encryption": "wpa2", "bitrate": "144.0"}, {"ssid": "Avigni_Abitazione", "mac": "74:4D:28:B4:5C:DE", "rssi": "-92.0", "quality": "15", "frequency": "5.26", "encryption": "wpa2", "bitrate": "867.0"}, {"ssid": "RIVRE_S2", "mac": "B8:69:F4:70:E2:3B", "rssi": "-91.5", "quality": "16", "frequency": "5.26", "encryption": "wpa2", "bitrate": "780.0"}, {"ssid": "AG240S", "mac": "D4:2C:44:1B:AF:C0", "rssi": "-87.5", "quality": "87", "frequency": "2.462", "encryption": "wpa2", "bitrate": "144.0"}, {"ssid": "CCDPLAN", "mac": "D4:2C:44:1B:AF:C1", "rssi": "-86.0", "quality": "80", "frequency": "2.462", "encryption": "wpa2", "bitrate": "144.0"}, {"ssid": "ospiti", "mac": "00:F6:63:E9:C8:E9", "rssi": "-84.0", "quality": "72", "frequency": "2.462", "encryption": "off", "bitrate": "144.0"}], "uav_param": {"mode": "AUTO", "status": "ACTIVE", "battery": "23.618", "attitude": {"pitch": "-0.008480653166770935", "yaw": "0.6716232299804688", "roll": "-0.14046227931976318"}}, "gps_param": {"latitude": "45.0059858", "longitude": "10.4615432", "altitude": "57.91", "groundspeed": "1.843882441520691", "velocity": {"vx": "1.42", "vy": "1.16", "vz": "-0.06"}, "head": "38", "hdop": "70", "vdop": "89", "satellites": "16", "fix_type": "4"}}
{"interface": "wlan0", "timestamp": "2021-05-26 11:41:48.548631", "networks": [{"ssid": "Xiaomi MI 9T", "mac": "DE:8B:BA:18:39:46", "rssi": "-76.0", "quality": "89", "frequency": "2.417", "encryption": "wpa2", "bitrate": "390.0"}, {"ssid": "Piscina", "mac": "70:4F:57:5D:93:04", "rssi": "-88.0", "quality": "84", "frequency": "2.412", "encryption": "wpa2", "bitrate": "300.0"}, {"ssid": "FIR_AP_70-52", "mac": "88:DC:96:6C:B4:91", "rssi": "-95.0", "quality": "10", "frequency": "5.64", "encryption": "wpa2", "bitrate": "867.0"}, {"ssid": "Viadana_Set2", "mac": "74:4D:28:C1:B2:9D", "rssi": "-93.5", "quality": "17", "frequency": "5.18", "encryption": "off", "bitrate": "867.0"}, {"ssid": "CcdpWifiZone", "mac": "D4:2C:44:1B:AF:C2", "rssi": "-86.0", "quality": "79", "frequency": "2.462", "encryption": "wpa2", "bitrate": "144.0"}, {"ssid": "cpc", "mac": "D4:2C:44:1B:AF:C3", "rssi": "-86.5", "quality": "80", "frequency": "2.462", "encryption": "off", "bitrate": "144.0"}, {"ssid": "RIVRE_S3", "mac": "E4:8D:8C:F3:BA:5E", "rssi": "-91.5", "quality": "25", "frequency": "5.7", "encryption": "wpa2", "bitrate": "390.0"}, {"ssid": "Rivarolo_dre_set3_5.4", "mac": "E6:8D:8C:F3:BA:5E", "rssi": "-91.0", "quality": "28", "frequency": "5.7", "encryption": "off", "bitrate": "390.0"}, {"ssid": "TEA_SANMARTINO", "mac": "E4:8D:8C:F4:74:46", "rssi": "-93.0", "quality": "16", "frequency": "5.745", "encryption": "wpa2", "bitrate": "780.0"}, {"ssid": "CCDPCB", "mac": "D4:2C:44:1B:AF:C4", "rssi": "-87.0", "quality": "84", "frequency": "2.462", "encryption": "wpa2", "bitrate": "144.0"}, {"ssid": "CCDPLAN", "mac": "50:2F:A8:9D:A9:91", "rssi": "-87.0", "quality": "86", "frequency": "2.462", "encryption": "wpa2", "bitrate": "144.0"}, {"ssid": "Avigni_Abitazione", "mac": "74:4D:28:B4:5C:DE", "rssi": "-92.0", "quality": "15", "frequency": "5.26", "encryption": "wpa2", "bitrate": "867.0"}, {"ssid": "RIVRE_S2", "mac": "B8:69:F4:70:E2:3B", "rssi": "-91.5", "quality": "16", "frequency": "5.26", "encryption": "wpa2", "bitrate": "780.0"}, {"ssid": "AG240S", "mac": "D4:2C:44:1B:AF:C0", "rssi": "-87.5", "quality": "87", "frequency": "2.462", "encryption": "wpa2", "bitrate": "144.0"}, {"ssid": "CCDPLAN", "mac": "D4:2C:44:1B:AF:C1", "rssi": "-86.0", "quality": "78", "frequency": "2.462", "encryption": "wpa2", "bitrate": "144.0"}, {"ssid": "ospiti", "mac": "00:F6:63:E9:C8:E9", "rssi": "-84.0", "quality": "72", "frequency": "2.462", "encryption": "off", "bitrate": "144.0"}, {"ssid": "AG240S", "mac": "50:67:AE:C3:2A:60", "rssi": "-86.0", "quality": "81", "frequency": "2.412", "encryption": "wpa2", "bitrate": "144.0"}, {"ssid": "CCDPCB", "mac": "50:67:AE:C3:2A:64", "rssi": "-86.0", "quality": "81", "frequency": "2.412", "encryption": "wpa2", "bitrate": "144.0"}, {"ssid": "cpc", "mac": "50:67:AE:C3:2A:63", "rssi": "-89.0", "quality": "95", "frequency": "2.412", "encryption": "off", "bitrate": "144.0"}, {"ssid": "CCDPLAN", "mac": "50:67:AE:C3:2A:61", "rssi": "-87.0", "quality": "86", "frequency": "2.412", "encryption": "wpa2", "bitrate": "144.0"}], "uav_param": {"mode": "AUTO", "status": "ACTIVE", "battery": "23.687", "attitude": {"pitch": "-0.10986952483654022", "yaw": "-0.028314635157585144", "roll": "-0.026150710880756378"}}, "gps_param": {"latitude": "45.0061556", "longitude": "10.4615582", "altitude": "58.0", "groundspeed": "4.2270426750183105", "velocity": {"vx": "4.22", "vy": "-0.09", "vz": "-0.05"}, "head": "358", "hdop": "72", "vdop": "89", "satellites": "15", "fix_type": "4"}}
{"interface": "wlan0", "timestamp": "2021-05-26 11:41:53.377521", "networks": [{"ssid": "Xiaomi MI 9T", "mac": "DE:8B:BA:18:39:46", "rssi": "-77.0", "quality": "83", "frequency": "2.417", "encryption": "wpa2", "bitrate": "390.0"}, {"ssid": "Piscina", "mac": "70:4F:57:5D:93:04", "rssi": "-88.0", "quality": "84", "frequency": "2.412", "encryption": "wpa2", "bitrate": "300.0"}, {"ssid": "FIR_AP_70-52", "mac": "88:DC:96:6C:B4:91", "rssi": "-95.0", "quality": "9", "frequency": "5.64", "encryption": "wpa2", "bitrate": "867.0"}, {"ssid": "Viadana_Set2", "mac": "74:4D:28:C1:B2:9D", "rssi": "-93.5", "quality": "16", "frequency": "5.18", "encryption": "off", "bitrate": "867.0"}, {"ssid": "CcdpWifiZone", "mac": "D4:2C:44:1B:AF:C2", "rssi": "-86.0", "quality": "78", "frequency": "2.462", "encryption": "wpa2", "bitrate": "144.0"}, {"ssid": "cpc", "mac": "D4:2C:44:1B:AF:C3", "rssi": "-87.0", "quality": "79", "frequency": "2.462", "encryption": "off", "bitrate": "144.0"}, {"ssid": "RIVRE_S3", "mac": "E4:8D:8C:F3:BA:5E", "rssi": "-92.0", "quality": "23", "frequency": "5.7", "encryption": "wpa2", "bitrate": "390.0"}, {"ssid": "Rivarolo_dre_set3_5.4", "mac": "E6:8D:8C:F3:BA:5E", "rssi": "-91.5", "quality": "25", "frequency": "5.7", "encryption": "off", "bitrate": "390.0"}, {"ssid": "TEA_SANMARTINO", "mac": "E4:8D:8C:F4:74:46", "rssi": "-93.0", "quality": "14", "frequency": "5.745", "encryption": "wpa2", "bitrate": "780.0"}, {"ssid": "CCDPCB", "mac": "D4:2C:44:1B:AF:C4", "rssi": "-87.0", "quality": "83", "frequency": "2.462", "encryption": "wpa2", "bitrate": "144.0"}, {"ssid": "Avigni_Abitazione", "mac": "74:4D:28:B4:5C:DE", "rssi": "-92.0", "quality": "15", "frequency": "5.26", "encryption": "wpa2", "bitrate": "867.0"}, {"ssid": "RIVRE_S2", "mac": "B8:69:F4:70:E2:3B", "rssi": "-91.5", "quality": "16", "frequency": "5.26", "encryption": "wpa2", "bitrate": "780.0"}, {"ssid": "AG240S", "mac": "D4:2C:44:1B:AF:C0", "rssi": "-87.5", "quality": "87", "frequency": "2.462", "encryption": "wpa2", "bitrate": "144.0"}, {"ssid": "CCDPLAN", "mac": "D4:2C:44:1B:AF:C1", "rssi": "-86.0", "quality": "78", "frequency": "2.462", "encryption": "wpa2", "bitrate": "144.0"}, {"ssid": "ospiti", "mac": "00:F6:63:E9:C8:E9", "rssi": "-84.0", "quality": "72", "frequency": "2.462", "encryption": "off", "bitrate": "144.0"}, {"ssid": "AG240S", "mac": "50:67:AE:C3:2A:60", "rssi": "-86.0", "quality": "81", "frequency": "2.412", "encryption": "wpa2", "bitrate": "144.0"}, {"ssid": "CCDPCB", "mac": "50:67:AE:C3:2A:64", "rssi": "-86.0", "quality": "81", "frequency": "2.412", "encryption": "wpa2", "bitrate": "144.0"}, {"ssid": "cpc", "mac": "50:67:AE:C3:2A:63", "rssi": "-89.0", "quality": "95", "frequency": "2.412", "encryption": "off", "bitrate": "144.0"}, {"ssid": "CCDPLAN", "mac": "50:67:AE:C3:2A:61", "rssi": "-87.0", "quality": "86", "frequency": "2.412", "encryption": "wpa2", "bitrate": "144.0"}], "uav_param": {"mode": "AUTO", "status": "ACTIVE", "battery": "23.643", "attitude": {"pitch": "-0.08118218928575516", "yaw": "0.010240895673632622", "roll": "0.012833294458687305"}}, "gps_param": {"latitude": "45.0063819", "longitude": "10.4615578", "altitude": "57.98", "groundspeed": "4.922398090362549", "velocity": {"vx": "4.91", "vy": "-0.16", "vz": "-0.06"}, "head": "0", "hdop": "70", "vdop": "89", "satellites": "16", "fix_type": "4"}}
{"interface": "wlan0", "timestamp": "2021-05-26 11:41:58.606997", "networks": [{"ssid": "Xiaomi MI 9T", "mac": "DE:8B:BA:18:39:46", "rssi": "-77.0", "quality": "83", "frequency": "2.417", "encryption": "wpa2", "bitrate": "390.0"}, {"ssid": "Piscina", "mac": "70:4F:57:5D:93:04", "rssi": "-88.0", "quality": "84", "frequency": "2.412", "encryption": "wpa2", "bitrate": "300.0"}, {"ssid": "FIR_AP_70-52", "mac": "88:DC:96:6C:B4:91", "rssi": "-95.0", "quality": "9", "frequency": "5.64", "encryption": "wpa2", "bitrate": "867.0"}, {"ssid": "Viadana_Set2", "mac": "74:4D:28:C1:B2:9D", "rssi": "-93.5", "quality": "15", "frequency": "5.18", "encryption": "off", "bitrate": "867.0"}, {"ssid": "CcdpWifiZone", "mac": "D4:2C:44:1B:AF:C2", "rssi": "-86.0", "quality": "76", "frequency": "2.462", "encryption": "wpa2", "bitrate": "144.0"}, {"ssid": "cpc", "mac": "D4:2C:44:1B:AF:C3", "rssi": "-86.0", "quality": "74", "frequency": "2.462", "encryption": "off", "bitrate": "144.0"}, {"ssid": "RIVRE_S3", "mac": "E4:8D:8C:F3:BA:5E", "rssi": "-92.0", "quality": "22", "frequency": "5.7", "encryption": "wpa2", "bitrate": "390.0"}, {"ssid": "Rivarolo_dre_set3_5.4", "mac": "E6:8D:8C:F3:BA:5E", "rssi": "-91.5", "quality": "24", "frequency": "5.7", "encryption": "off", "bitrate": "390.0"}, {"ssid": "TEA_SANMARTINO", "mac": "E4:8D:8C:F4:74:46", "rssi": "-93.0", "quality": "14", "frequency": "5.745", "encryption": "wpa2", "bitrate": "780.0"}, {"ssid": "CCDPCB", "mac": "D4:2C:44:1B:AF:C4", "rssi": "-86.5", "quality": "79", "frequency": "2.462", "encryption": "wpa2", "bitrate": "144.0"}, {"ssid": "Avigni_Abitazione", "mac": "74:4D:28:B4:5C:DE", "rssi": "-92.0", "quality": "15", "frequency": "5.26", "encryption": "wpa2", "bitrate": "867.0"}, {"ssid": "RIVRE_S2", "mac": "B8:69:F4:70:E2:3B", "rssi": "-91.5", "quality": "15", "frequency": "5.26", "encryption": "wpa2", "bitrate": "780.0"}, {"ssid": "AG240S", "mac": "D4:2C:44:1B:AF:C0", "rssi": "-87.5", "quality": "84", "frequency": "2.462", "encryption": "wpa2", "bitrate": "144.0"}, {"ssid": "CCDPLAN", "mac": "D4:2C:44:1B:AF:C1", "rssi": "-86.0", "quality": "76", "frequency": "2.462", "encryption": "wpa2", "bitrate": "144.0"}, {"ssid": "ospiti", "mac": "00:F6:63:E9:C8:E9", "rssi": "-84.0", "quality": "72", "frequency": "2.462", "encryption": "off", "bitrate": "144.0"}, {"ssid": "AG240S", "mac": "50:67:AE:C3:2A:60", "rssi": "-86.0", "quality": "81", "frequency": "2.412", "encryption": "wpa2", "bitrate": "144.0"}, {"ssid": "CCDPCB", "mac": "50:67:AE:C3:2A:64", "rssi": "-86.0", "quality": "81", "frequency": "2.412", "encryption": "wpa2", "bitrate": "144.0"}, {"ssid": "cpc", "mac": "50:67:AE:C3:2A:63", "rssi": "-89.0", "quality": "95", "frequency": "2.412", "encryption": "off", "bitrate": "144.0"}, {"ssid": "CCDPLAN", "mac": "50:67:AE:C3:2A:61", "rssi": "-87.0", "quality": "86", "frequency": "2.412", "encryption": "wpa2", "bitrate": "144.0"}, {"ssid": "CcdpWifiZone", "mac": "50:67:AE:C3:2A:62", "rssi": "-92.0", "quality": "100", "frequency": "2.412", "encryption": "wpa2", "bitrate": "144.0"}], "uav_param": {"mode": "AUTO", "status": "ACTIVE", "battery": "23.616", "attitude": {"pitch": "-0.10885362327098846", "yaw": "0.0024494491517543793", "roll": "0.018125087022781372"}}, "gps_param": {"latitude": "45.0065889", "longitude": "10.4615586", "altitude": "57.98", "groundspeed": "4.906911373138428", "velocity": {"vx": "4.9", "vy": "-0.09", "vz": "-0.09"}, "head": "0", "hdop": "74", "vdop": "99", "satellites": "15", "fix_type": "4"}}
{"interface": "wlan0", "timestamp": "2021-05-26 11:42:04.152217", "networks": [{"ssid": "Xiaomi MI 9T", "mac": "DE:8B:BA:18:39:46", "rssi": "-80.0", "quality": "79", "frequency": "2.417", "encryption": "wpa2", "bitrate": "390.0"}, {"ssid": "FIR_AP_70-52", "mac": "88:DC:96:6C:B4:91", "rssi": "-95.0", "quality": "9", "frequency": "5.64", "encryption": "wpa2", "bitrate": "867.0"}, {"ssid": "Viadana_Set2", "mac": "74:4D:28:C1:B2:9D", "rssi": "-93.5", "quality": "15", "frequency": "5.18", "encryption": "off", "bitrate": "867.0"}, {"ssid": "CcdpWifiZone", "mac": "D4:2C:44:1B:AF:C2", "rssi": "-86.0", "quality": "75", "frequency": "2.462", "encryption": "wpa2", "bitrate": "144.0"}, {"ssid": "cpc", "mac": "D4:2C:44:1B:AF:C3", "rssi": "-86.0", "quality": "74", "frequency": "2.462", "encryption": "off", "bitrate": "144.0"}, {"ssid": "RIVRE_S3", "mac": "E4:8D:8C:F3:BA:5E", "rssi": "-92.5", "quality": "19", "frequency": "5.7", "encryption": "wpa2", "bitrate": "390.0"}, {"ssid": "Rivarolo_dre_set3_5.4", "mac": "E6:8D:8C:F3:BA:5E", "rssi": "-92.0", "quality": "21", "frequency": "5.7", "encryption": "off", "bitrate": "390.0"}, {"ssid": "TEA_SANMARTINO", "mac": "E4:8D:8C:F4:74:46", "rssi": "-93.0", "quality": "16", "frequency": "5.745", "encryption": "wpa2", "bitrate": "780.0"}, {"ssid": "CCDPCB", "mac": "D4:2C:44:1B:AF:C4", "rssi": "-86.5", "quality": "78", "frequency": "2.462", "encryption": "wpa2", "bitrate": "144.0"}, {"ssid": "RIVRE_S2", "mac": "B8:69:F4:70:E2:3B", "rssi": "-91.5", "quality": "15", "frequency": "5.26", "encryption": "wpa2", "bitrate": "780.0"}, {"ssid": "AG240S", "mac": "D4:2C:44:1B:AF:C0", "rssi": "-87.5", "quality": "84", "frequency": "2.462", "encryption": "wpa2", "bitrate": "144.0"}, {"ssid": "CCDPLAN", "mac": "D4:2C:44:1B:AF:C1", "rssi": "-86.0", "quality": "76", "frequency": "2.462", "encryption": "wpa2", "bitrate": "144.0"}, {"ssid": "AG240S", "mac": "50:67:AE:C3:2A:60", "rssi": "-86.0", "quality": "81", "frequency": "2.412", "encryption": "wpa2", "bitrate": "144.0"}, {"ssid": "CCDPCB", "mac": "50:67:AE:C3:2A:64", "rssi": "-86.0", "quality": "81", "frequency": "2.412", "encryption": "wpa2", "bitrate": "144.0"}, {"ssid": "cpc", "mac": "50:67:AE:C3:2A:63", "rssi": "-89.0", "quality": "95", "frequency": "2.412", "encryption": "off", "bitrate": "144.0"}, {"ssid": "CCDPLAN", "mac": "50:67:AE:C3:2A:61", "rssi": "-87.0", "quality": "86", "frequency": "2.412", "encryption": "wpa2", "bitrate": "144.0"}, {"ssid": "CcdpWifiZone", "mac": "50:67:AE:C3:2A:62", "rssi": "-92.0", "quality": "100", "frequency": "2.412", "encryption": "wpa2", "bitrate": "144.0"}, {"ssid": "Avigni_Abitazione", "mac": "74:4D:28:B4:5C:DE", "rssi": "-93.0", "quality": "12", "frequency": "5.26", "encryption": "wpa2", "bitrate": "867.0"}], "uav_param": {"mode": "AUTO", "status": "ACTIVE", "battery": "23.604", "attitude": {"pitch": "-0.11160542815923691", "yaw": "0.00515298917889595", "roll": "0.023853342980146408"}}, "gps_param": {"latitude": "45.0068344", "longitude": "10.4615584", "altitude": "57.95", "groundspeed": "5.0203094482421875", "velocity": {"vx": "5.02", "vy": "-0.02", "vz": "-0.04"}, "head": "0", "hdop": "70", "vdop": "89", "satellites": "16", "fix_type": "4"}}
